LAT,LONG,OBJECTID,PROVINCE,DISTRICT,SECTOR,CELL,VILLAGE,NAME,TYPE,SOURCE,CAPTURE
-2.1855,30.095805556,1,EAST,BUGESERA,NYAMATA,KANAZI,MUSAGARA,E.P GITWE,Primary,Ministry of education,2015
-2.140555556,30.080583333,2,EAST,BUGESERA,NYAMATA,NYAMATA VILLE,NYABIVUMU,NYAMATA,Primary,Ministry of education,2015
-2.143805556,30.086638889,3,EAST,BUGESERA,NYAMATA,NYAMATA VILLE,NYAMATA VILLE,ESPOIR DE LA VENIR PRIMARY,Primary,Ministry of education,2015
-2.171333333,30.068916667,4,EAST,BUGESERA,NYAMATA,KANAZI,NYARUGATE II,E.P KANIZI,Primary,Ministry of education,2015
-2.104166667,30.109027777,5,EAST,BUGESERA,NYAMATA,KAYUMBA,KARAMBI,E.P KARAMBI,Primary,Ministry of education,2015
-2.148861111,30.093194445,6,EAST,BUGESERA,NYAMATA,NYAMATA VILLE,NYAMATA I,HIGHLAND,Primary,Ministry of education,2015
-2.1705,30.2135,7,EAST,BUGESERA,RILIMA,NTARAMA,GASEKE,E.P GASEKE,Primary,Ministry of education,2015
-2.147777778,30.175388888,8,EAST,BUGESERA,RILIMA,KARERA,RWANKOMATI,KARERA,Primary,Ministry of education,2015
-2.180083333,30.175833333,9,EAST,BUGESERA,RILIMA,KABEZA,KALILISI,E.P KALILISI,Primary,Ministry of education,2015
-2.269583333,29.982222222,10,EAST,BUGESERA,SHYARA,KABAGUGU,RWAMANYONI,E.P RWAMANYONI,Primary,Ministry of education,2015
-2.242277778,30.000555556,11,EAST,BUGESERA,SHYARA,KAMABUYE,GAKONI,E.P NYABAGUMA ,Primary,Ministry of education,2015
-2.222027778,30.085666667,12,EAST,BUGESERA,MUSENYI,NYAGIHUNIKA,GITAGATA,E.P GITAGATA,Primary,Ministry of education,2015
-2.078083333,30.092361111,13,EAST,BUGESERA,NTARAMA,KANZENZE,KABEZA,E.P NYIRARUKOBWA,Primary,Ministry of education,2015
-2.263388889,30.116361111,14,EAST,BUGESERA,NGERUKA,GIHEMBE,RUSAGARA,E.P KAGASA,Primary,Ministry of education,2015
-2.354583333,30.062611111,15,EAST,BUGESERA,NGERUKA,RUTONDE,RUYONZA,E.P KAGANO,Primary,Ministry of education,2015
-2.361888888,30.083305555,16,EAST,BUGESERA,NGERUKA,RUTONDE,AKAJURI,E.P SHAMI,Primary,Ministry of education,2015
-2.322583333,30.119833334,17,EAST,BUGESERA,NGERUKA,NGERUKA,BINYONZWE,E.P NGERUKA,Primary,Ministry of education,2015
-2.259194444,30.040416667,18,EAST,BUGESERA,MAREBA,GAKOMEYE,GITWA,E.P GAKOMEYE,Primary,Ministry of education,2015
-2.2795,30.079555556,19,EAST,BUGESERA,MAREBA,BUSHENYI,MUYANGE,E.P RUKOYOYO,Primary,Ministry of education,2015
-2.229388889,30.15675,20,EAST,BUGESERA,MAYANGE,MBYO,RUGARAMA,E.P MBYO,Primary,Ministry of education,2015
-2.268527778,30.214027778,21,EAST,BUGESERA,GASHORA,RAMIRO,KAGASA 1,E.P.KAGASA,Primary,Ministry of education,2015
-2.20725,30.246805555,22,EAST,BUGESERA,GASHORA,BIRYOGO,KIVUGIZA,E.P.GASHORA,Primary,Ministry of education,2015
-2.278055556,30.295861111,23,EAST,BUGESERA,RWERU,NKANGA,RUZO,E.P RUZO,Primary,Ministry of education,2015
-2.340083333,30.214555556,24,EAST,BUGESERA,RWERU,NEMBA,NEMBA,E.P NEMBA,Primary,Ministry of education,2015
-2.3115,30.22725,25,EAST,BUGESERA,RWERU,NEMBA,KIMVUBU,E.P RWIMINARI,Primary,Ministry of education,2015
-2.322472222,30.086833333,26,EAST,BUGESERA,RUHUHA,KINDAMA,KINDAMA,E.P KINDAMA ADVENTISTE,Primary,Ministry of education,2015
-2.317944445,30.077722222,27,EAST,BUGESERA,RUHUHA,KINDAMA,KAGASERA,E.P MINAZI,Primary,Ministry of education,2015
-2.333333334,30.052111111,28,EAST,BUGESERA,RUHUHA,GATANGA,KIBAZA,E.P CATHOLIQUE BUTERERI,Primary,Ministry of education,2015
-2.326777778,30.036666667,29,EAST,BUGESERA,RUHUHA,BIHARI,BIHARI,E.P RUGARAMA,Primary,Ministry of education,2015
-2.2995,29.987583333,30,EAST,BUGESERA,NYARUGENGE,GIHINGA,NYAGASOZI,E.P KIGARAMA,Primary,Ministry of education,2015
-2.294833333,30.0225,31,EAST,BUGESERA,NYARUGENGE,RUGANDO,NSORO,E.P RUGANDO,Primary,Ministry of education,2015
-2.327861111,30.003333334,32,EAST,BUGESERA,NYARUGENGE,MURAMBI,CYERU,E.P MURAMBI,Primary,Ministry of education,2015
-2.411222222,30.103722223,33,EAST,BUGESERA,KAMABUYE,BURENGE,KARENGE,E.P.MURAMBO,Primary,Ministry of education,2015
-2.374055555,30.112694445,34,EAST,BUGESERA,KAMABUYE,TUNDA,TUNDA,E.P.TUNDA,Primary,Ministry of education,2015
-2.3365,30.139888889,35,EAST,BUGESERA,KAMABUYE,NYAKAYAGA,AKAJE,E.P. MURAGO,Primary,Ministry of education,2015
-2.148666667,30.093444445,36,EAST,BUGESERA,NYAMATA,NYAMATA VILLE,NYAMATA I,ST. THERESE,Primary,Ministry of education,2015
-2.155638888,30.008611111,37,EAST,BUGESERA,MUSENYI,RULINDO,RULINDO,E.P RULINDO,Primary,Ministry of education,2015
-2.219222222,30.048944445,38,EAST,BUGESERA,MUSENYI,NYAGIHUNIKA,KIGUSA,E.P KIGUSA,Primary,Ministry of education,2015
-2.213722222,30.015138889,39,EAST,BUGESERA,MUSENYI,GICACA,CYARUBAZI,E.P GICACA,Primary,Ministry of education,2015
-2.206166666,30.143638889,40,EAST,BUGESERA,MAYANGE,KAGENGE,KARAMA,E.P MAYANGE B,Primary,Ministry of education,2015
-2.178138889,30.154833334,41,EAST,BUGESERA,MAYANGE,GAKAMBA,KARAMBO,E.P MUYENZI,Primary,Ministry of education,2015
-2.312,30.055277778,42,EAST,BUGESERA,RUHUHA,GATANGA,RWANIKA,UMURAGE RIGHT SCHOOL,Primary,Ministry of education,2015
-2.317944444,29.987555555,43,EAST,BUGESERA,NYARUGENGE,NGENDA,NYAGISENYI,E.P NGENDA,Primary,Ministry of education,2015
-2.153638889,30.101083334,44,EAST,BUGESERA,NYAMATA,NYAMATA VILLE,GASENGA I,MARANYUNDO GIRLS,Secondary,Ministry of education,2015
-2.140638889,30.087583333,45,EAST,BUGESERA,NYAMATA,KAYUMBA,RUGARAMA I,E.S APEBU,Secondary,Ministry of education,2015
-2.139027778,30.081888889,46,EAST,BUGESERA,NYAMATA,KAYUMBA,KAYONZA,E.S NYAMATA,Secondary,Ministry of education,2015
-2.154388889,30.097027778,47,EAST,BUGESERA,NYAMATA,NYAMATA VILLE,NYAMATA II,ETO NYAMATA,Secondary,Ministry of education,2015
-2.1635,30.103861111,48,EAST,BUGESERA,NYAMATA,MARANYUNDO,MUYANGE,ESKA,Secondary,Ministry of education,2015
-2.159555555,30.231416667,49,EAST,BUGESERA,RILIMA,KIMARANZARA,AMIZERO,G.S RILIMA,Secondary,Ministry of education,2015
-2.271777778,30.007055555,50,EAST,BUGESERA,SHYARA,RUTARE,RUTARE,G.S GIHINGA,Secondary,Ministry of education,2015
-2.070388889,30.090638889,51,EAST,BUGESERA,NTARAMA,CYUGARO,RUGARAMA,NELSON MANDELA EDUCATION CENTRE,Secondary,Ministry of education,2015
-2.297527777,30.04475,52,EAST,BUGESERA,MAREBA,RANGO,RUSAGARA,G.S RANGO,Secondary,Ministry of education,2015
-2.247138889,30.069638889,53,EAST,BUGESERA,MAREBA,RUGARAMA,RUGARAMA,G.S MAREBA,Secondary,Ministry of education,2015
-2.225416667,30.157138889,54,EAST,BUGESERA,MAYANGE,MBYO,RUGARAMA,E.S KAMABUYE,Secondary,Ministry of education,2015
-2.311777778,30.059805556,55,EAST,BUGESERA,RUHUHA,GATANGA,NYAKAGARAMA,VTC RUHUHA,Secondary,Ministry of education,2015
-2.312833333,30.058194444,56,EAST,BUGESERA,RUHUHA,GATANGA,RWANIKA,APED NGENDA,Secondary,Ministry of education,2015
-2.136944444,30.0915,57,EAST,BUGESERA,NYAMATA,NYAMATA VILLE,RUGARAMA II,G.S NYAMATA EPR,Secondary,Ministry of education,2015
-2.199527778,30.205361111,58,EAST,BUGESERA,RILIMA,NYABAGENDWA,CYOMA,G.S NYABAGENDWA,Secondary,Ministry of education,2015
-2.160194445,30.228,59,EAST,BUGESERA,RILIMA,KIMARANZARA,KIMARANZARA,G.S RIILIMA CATHOLIQUE,Secondary,Ministry of education,2015
-2.205194444,30.070194445,60,EAST,BUGESERA,MUSENYI,NYAGIHUNIKA,RUSHUBI,G.S NYAGIHUNIKA,Secondary,Ministry of education,2015
-2.29275,30.114472222,61,EAST,BUGESERA,NGERUKA,NYAKAYENZI,KARAMA,G.S TWIMPALA,Secondary,Ministry of education,2015
-2.34625,30.1025,62,EAST,BUGESERA,NGERUKA,MURAMA,IKONI,G.S RUTONDE,Secondary,Ministry of education,2015
-2.228305556,30.231833333,63,EAST,BUGESERA,GASHORA,RAMIRO,MUNYINYA,G.S.DIHIRO,Secondary,Ministry of education,2015
-2.248722222,30.24875,64,EAST,BUGESERA,GASHORA,MWENDO,RUHANGA,G.S.MWENDO,Secondary,Ministry of education,2015
-2.352194444,30.26625,65,EAST,BUGESERA,RWERU,KINTAMIBWE,NABURANE,G.S NYIRAGISEKE,Secondary,Ministry of education,2015
-2.310805555,30.059027778,66,EAST,BUGESERA,RUHUHA,RUHUHA,RUHUHA I,G.S RUHUHA,Secondary,Ministry of education,2015
-2.309,30.0065,67,EAST,BUGESERA,NYARUGENGE,NGENDA,KAMABARE,G.S KAMABARE,Secondary,Ministry of education,2015
-2.419583333,30.139388889,68,EAST,BUGESERA,KAMABUYE,BIHARAGU, ,G.S.BIHARAGU,Secondary,Ministry of education,2015
-2.372472222,30.131694444,69,EAST,BUGESERA,KAMABUYE,KAMEKA,SANGANO,G.S.NYAKAYAGA,Secondary,Ministry of education,2015
-2.132611111,30.132138889,70,EAST,BUGESERA,NYAMATA,MURAMA,MURAMA,G.S MURAMA,Secondary,Ministry of education,2015
-2.128944444,30.069666667,71,EAST,BUGESERA,NYAMATA,KAYUMBA,KAYENZI,E.P KAYENZI,Secondary,Ministry of education,2015
-2.147388889,30.092388888,72,EAST,BUGESERA,NYAMATA,NYAMATA VILLE,NYAMATA I,"Pre-primary,Secondary",Secondary,Ministry of education,2015
-2.1595,30.100472222,73,EAST,BUGESERA,NYAMATA,MARANYUNDO,MUYANGE,G.S MARANYUNDO,Secondary,Ministry of education,2015
-2.184583334,30.025,74,EAST,BUGESERA,MUSENYI,MUSENYI,CYERU,G.S.MUSENYI,Secondary,Ministry of education,2015
-2.109388889,30.066527778,75,EAST,BUGESERA,NTARAMA,CYUGARO,RUGARAMA/RWANGARA(PRIMARY),G.S.NTARAMA,Secondary,Ministry of education,2015
-2.196,30.12125,76,EAST,BUGESERA,MAYANGE,KAGENGE,KIRUHURA,G.S MAYANGE A,Secondary,Ministry of education,2015
-2.306888889,30.258388888,77,EAST,BUGESERA,RWERU,BATIMA,BATIMA,G.S NKANGA,Secondary,Ministry of education,2015
-2.141972223,30.254361111,78,EAST,BUGESERA,MWOGO,KAGASA,RWINTENDERI,G.S KAGASA-MWOGO,Secondary,Ministry of education,2015
-2.232333334,30.176277778,79,EAST,BUGESERA,MAYANGE,MBYO,RWIMIKONI I, ,Pre-Primary,Ministry of education,2015
-2.202666667,30.096277778,80,EAST,BUGESERA,MAYANGE,KIBENGA,MURAMBI,E.P KIBENGA,Pre-Primary,Ministry of education,2015
-2.107972222,30.063694445,81,EAST,BUGESERA,NTARAMA,KIBUNGO,RUHENGERI,G.S KIBUNGO,Secondary,Ministry of education,2015
-1.362,29.879055555,82,NORTH,BURERA,BUTARO,NYAMICUCU,KIRINGA,KIRINGA PRIMARY SCHOOL,Primary,Ministry of education,2015
-1.458194444,29.844916667,83,NORTH,BURERA,BUTARO,GATSIBO,KINDOYI,NYAMIYAGA PRIMARY SCHOOL,Primary,Ministry of education,2015
-1.400083333,29.841666666,84,NORTH,BURERA,BUTARO,GATSIBO,GASEBEYA,GASEBEYA PRIMARY SCHOOL,Primary,Ministry of education,2015
-1.373666667,29.720944444,85,NORTH,BURERA,CYANIKA,NYAGAHINGA,KANYABARANZI,C.S RUKO,Primary,Ministry of education,2015
-1.399111111,29.725805555,86,NORTH,BURERA,CYANIKA,GASIZA,GAHIRIKIRO,C.S GITARAGA,Primary,Ministry of education,2015
-1.345222222,29.72975,87,NORTH,BURERA,CYANIKA,KAMANYANA,RYABITEYI,C.S DE CYANIKA,Primary,Ministry of education,2015
-1.388611111,29.713027778,88,NORTH,BURERA,CYANIKA,KABYINIRO,MUGARAMA,C.S DE MUGARAMA,Primary,Ministry of education,2015
-1.512555555,29.969555556,89,NORTH,BURERA,BUNGWE,TUMBA,KARWEMA,ECOLE PRIMARY TUMBA,Primary,Ministry of education,2015
-1.477,29.967888889,90,NORTH,BURERA,BUNGWE,BUSHENYA,GIFUMBA,BUSHENYA,Primary,Ministry of education,2015
-1.48875,29.972083334,91,NORTH,BURERA,BUNGWE,BUNGWE,NYABYONDO,ECOLE PRIMARY NYABYONDO,Primary,Ministry of education,2015
-1.502583334,29.856361111,92,NORTH,BURERA,RWERERE,GACUNDURA,GACUNDURA,E.P GACUNDURA,Primary,Ministry of education,2015
-1.541944444,29.872861111,93,NORTH,BURERA,RWERERE,RUGALI,MUCACA,E.P RUGALI,Primary,Ministry of education,2015
-1.529722222,29.881944445,94,NORTH,BURERA,RWERERE,RUCONSHO,RUCONSHO,E.P RWERERE,Primary,Ministry of education,2015
-1.509083333,29.775888889,95,NORTH,BURERA,GITOVU,MUSASA,RUHOMBO,G.S  RUHOMBO,Primary,Ministry of education,2015
-1.523583333,29.784361111,96,NORTH,BURERA,GITOVU,MUSASA,KIBUMBIRO,C.S MUSASA,Primary,Ministry of education,2015
-1.490833333,29.797583334,97,NORTH,BURERA,GITOVU,MARIBA,KIBOGA,C.S KIBOGA,Primary,Ministry of education,2015
-1.485027778,29.907166667,98,NORTH,BURERA,KIVUYE,BUKWASHURI,GITOVU,BUHITA I,Primary,Ministry of education,2015
-1.451083333,29.870916667,99,NORTH,BURERA,KIVUYE,MURWA,RUSASA,BUHITA II,Primary,Ministry of education,2015
-1.467361111,29.877694445,100,NORTH,BURERA,KIVUYE,MURWA,GATARE,MURWA,Primary,Ministry of education,2015
-1.409694444,29.884222223,101,NORTH,BURERA,KIVUYE,GASHANJE,RUGARAMBIRO,RUGARAMBIRO,Primary,Ministry of education,2015
-1.544111111,29.799694445,102,NORTH,BURERA,RUGENGABALI,RUKANDABYUMA,RUGANDU,CENTRE SCOLAIRE RUGENDABARE,Primary,Ministry of education,2015
-1.54725,29.814111111,103,NORTH,BURERA,RUGENGABARI,NYANAMO,KAMONYI,CENTRE SCOLAIRE RUSARABUGE,Primary,Ministry of education,2015
-1.439,29.672027778,104,NORTH,BURERA,GAHANGA,GISIZI,KABAGABO,C.S GATETE,Primary,Ministry of education,2015
-1.566472222,29.839305555,105,NORTH,BURERA,NEMBA,RUSHARA,CYAVE,CYAVE PRIMARY SCHOOL,Primary,Ministry of education,2015
-1.557333333,29.861972222,106,NORTH,BURERA,NEMBA,NYAMUGALI,KARYANGO,NEMBA1 PRIMARY SCHOOL,Primary,Ministry of education,2015
-1.571222222,29.866388889,107,NORTH,BURERA,NEMBA,NYAMUGALI,NYAGAHONGO,NEMBA2 PRIMARY SCHOOL,Primary,Ministry of education,2015
-1.579083333,29.881388889,108,NORTH,BURERA,NEMBA,RUBONA,MURANDAMO,RUBONA PRIMARY SCHOOL,Primary,Ministry of education,2015
-1.485333333,29.832138889,109,NORTH,BURERA,RUSARABUYE,NDAGO,NYARUNGU,NYARUNGU PRIMARY SCHOOL,Primary,Ministry of education,2015
-1.451611111,29.829416667,110,NORTH,BURERA,RUSARABUYE,KABONA,RUTUKU,KABONA,Primary,Ministry of education,2015
-1.455444445,29.821916666,111,NORTH,BURERA,RUSARABUYE,KABONA,NTAGARA,BISAYU PRIMARY SCHOOL,Primary,Ministry of education,2015
-1.52025,29.834555556,112,NORTH,BURERA,CYERU,NDONGOZI,KABAGENZA,BYUMBA,Primary,Ministry of education,2015
-1.497444444,29.833694444,113,NORTH,BURERA,CYERU,BUTARE,GATARE,KIRAMBO,Primary,Ministry of education,2015
-1.495472222,29.810444444,114,NORTH,BURERA,CYERU,RUYANGE,BURAMBWA,RUYANGE I,Primary,Ministry of education,2015
-1.420638889,29.746305555,115,NORTH,BURERA,RUGARAMA,RUREMBO,RWINKUBA,BURERA,Primary,Ministry of education,2015
-1.440277777,29.70925,116,NORTH,BURERA,RUGARAMA,KARANGARA,RUKIKO,MAYA I,Primary,Ministry of education,2015
-1.419638889,29.728972222,117,NORTH,BURERA,RUGARAMA,GAFUMBA,RUTAMBA,GAFUMBA,Primary,Ministry of education,2015
-1.420388889,29.7045,118,NORTH,BURERA,RUGARAMA,KARANGARA,GASIZA,KARANGARA,Primary,Ministry of education,2015
-1.416833333,29.71725,119,NORTH,BURERA,RUGARAMA,CYAHI,NGURI,CYAHI,Primary,Ministry of education,2015
-1.376305555,29.779555556,120,NORTH,BURERA,KAGOGO,KABAYA,RUKENKE,C.S SOZI,Primary,Ministry of education,2015
-1.377527778,29.778777777,121,NORTH,BURERA,KAGOGO,KAYENZI,KIYIRA,C.S KAYENZI,Primary,Ministry of education,2015
-1.384666666,29.778861111,122,NORTH,BURERA,KAGOGO,NYAMABUYE,GITARE,C.S GITARE I,Primary,Ministry of education,2015
-1.384361111,29.778444444,123,NORTH,BURERA,KAGOGO,KIRINGA,MUSANGABO,C.S KAGOGO,Primary,Ministry of education,2015
-1.324833333,29.829888889,124,NORTH,BURERA,KINYABABA,RUTOVU,NYABIZI II,C.S NYABIZI,Primary,Ministry of education,2015
-1.515527778,29.942,125,NORTH,BURERA,GATEBE,GABIRO,KAGANO,GATEBE PRIMARY SCHOOL,Primary,Ministry of education,2015
-1.5595,29.934111111,126,NORTH,BURERA,RUHUNDE,GATARE,GASHINGE,ECOLE PRIMARY RUHUNDE,Primary,Ministry of education,2015
-1.585194444,29.915,127,NORTH,BURERA,RUHUNDE,GITOVU,GENDA,ECOLE PRIMARY GITOVU,Primary,Ministry of education,2015
-1.362222222,29.807055556,128,NORTH,BURERA,KINYABABA,MUSASA,MURAMBO,C.S MURAMBO,Primary,Ministry of education,2015
-1.375944444,29.809277778,129,NORTH,BURERA,KINYABABA,KAGANDA, ,C.S KAGANDA,Primary,Ministry of education,2015
-1.401305555,29.845166666,130,NORTH,BURERA,BUTARO,RUSUMO,RUNABA,E.S RUNABA,Secondary,Ministry of education,2015
-1.378861111,29.744638889,131,NORTH,BURERA,CYANIKA,KAYITEGA,KIDEHO,E.S DE KIDEHO,Secondary,Ministry of education,2015
-1.505222223,29.972805556,132,NORTH,BURERA,BUNGWE,BUNGWE,RWERU,G.S APAPEDUC BUNGWE,Secondary,Ministry of education,2015
-1.442611111,29.707361111,133,NORTH,BURERA,GAHUNGA,RWASA,KANYIRAMUSENGO,E.S GAHUNGA,Secondary,Ministry of education,2015
-1.441833333,29.828944444,134,NORTH,BURERA,RUSARABUYE,KABONA,RUTUKU,APADEC BURERA,Secondary,Ministry of education,2015
-1.497333333,29.834166666,135,NORTH,BURERA,CYERU,BUTARE,GATARE,E.S KIRAMBO,Secondary,Ministry of education,2015
-1.509638889,29.843694444,136,NORTH,BURERA,CYERU,BUTARE,BUTARE,ENP/TTC KIRAMBO,Secondary,Ministry of education,2015
-1.422333333,29.723361111,137,NORTH,BURERA,RUGARAMA,GAFUMBA,KABAYA,CEPEM THECHNICAL SCHOOL,Secondary,Ministry of education,2015
-1.394777778,29.757777777,138,NORTH,BURERA,KAGOGO,NYAMABUYE,MUSARARA,G.S GITARE II,Secondary,Ministry of education,2015
-1.387583333,29.762666667,139,NORTH,BURERA,KAGOGO,KIRINGA,MUSANGABO,KAGOGO S.SCHOOL,Secondary,Ministry of education,2015
-1.391361111,29.839722222,140,NORTH,BURERA,BUTARO,NYAMICUCU,BURAMBIRA,G.S NYAMICUCU,Secondary,Ministry of education,2015
-1.401916666,29.861583333,141,NORTH,BURERA,BUTARO,RUSUMO,RUNABA,G.S RUNABA,Secondary,Ministry of education,2015
-1.371972222,29.730416667,142,NORTH,BURERA,CYANIKA,KAGITEGA,KARAMBO,G.S KAGITEGA,Secondary,Ministry of education,2015
-1.388972223,29.737305556,143,NORTH,BURERA,CYANIKA,KABYINIRO,BUTETE,GS  BUTETE,Secondary,Ministry of education,2015
-1.558416667,29.976722222,144,NORTH,BURERA,GATEBE,MUSENDA,KABUGA,G.S RUYANGE II,Secondary,Ministry of education,2015
-1.502527778,29.97375,145,NORTH,BURERA,BUNGWE,BUNGWE,RWERU,G.S REGINA PACIS BUNGWE,Secondary,Ministry of education,2015
-1.497416667,29.863166666,146,NORTH,BURERA,RWERERE,GASHORO,RWERERE,G.S CYAPA,Secondary,Ministry of education,2015
-1.464694445,29.884666667,147,NORTH,BURERA,KIVUYE,GASHANJE,KARAMBO,BUTANDI,Secondary,Ministry of education,2015
-1.492305556,29.930583333,148,NORTH,BURERA,KIVUYE,NYIRATABA,SHANJA,KIVUYE,Secondary,Ministry of education,2015
-1.556722222,29.800138889,149,NORTH,BURERA,RUGENGABALI,MUCACA,RIHIRO,G.S MUCACA,Secondary,Ministry of education,2015
-1.450027778,29.679416667,150,NORTH,BURERA,GAHUNGA,KIDAKAMA,RUSENYI,G.S GAHUNGA,Secondary,Ministry of education,2015
-1.604333333,29.861166666,151,NORTH,BURERA,NEMBA,KIVUMU,MUGANO,G.S MUGANO,Secondary,Ministry of education,2015
-1.605444445,29.883305556,152,NORTH,BURERA,NEMBA,KIVUMU,KIGEYO,G.S KIGEYO,Secondary,Ministry of education,2015
-1.553083333,29.849777777,153,NORTH,BURERA,NEMBA,RUSHARA,MUGOMERO,G.S RUSHARA,Secondary,Ministry of education,2015
-1.463444445,29.838666666,154,NORTH,BURERA,RUSARABUYE,RUHANGA,RUTORO,RUHANGA,Secondary,Ministry of education,2015
-1.465416666,29.809555555,155,NORTH,BURERA,RUSARABUYE,NDAGO,GASEKE,G.S NDAGO,Secondary,Ministry of education,2015
-1.507944445,29.843,156,NORTH,BURERA,CYERU,BUTARE,BUTARE,G.S JEAN DE LA MENNAIS,Secondary,Ministry of education,2015
-1.430638889,29.716777778,157,NORTH,BURERA,RUGARAMA,KARANGARA,MAYA,G.S MAYA II,Secondary,Ministry of education,2015
-1.407055555,29.73625,158,NORTH,BURERA,RUGARAMA,GAFUMBA,RUGARAMA,G.S RUGARAMA,Secondary,Ministry of education,2015
-1.346361111,29.823083333,159,NORTH,BURERA,KINYABABA,RUTOVU,MUSAGA,G.S RUTOVU,Secondary,Ministry of education,2015
-1.378416667,29.809638889,160,NORTH,BURERA,KINYABABA,BUGAMBA,KIRWA,G.S KINYABABA,Secondary,Ministry of education,2015
-1.521722222,29.924055556,161,NORTH,BURERA,GATEBE,RWASA,MURAMBO,G.S RWASA,Secondary,Ministry of education,2015
-1.566805556,29.891777778,162,NORTH,BURERA,RUHUNDE,GASEKE,RUGARAGARA,G.S GASEKE,Secondary,Ministry of education,2015
-1.572444445,29.941333333,163,NORTH,BURERA,RUHUNDE,RUSEKERA,RUSENGE,G.S RUSEKERA,Secondary,Ministry of education,2015
-1.455555556,29.693611111,164,NORTH,BURERA,GAHUNGA,BURAMBA,GASENYI,C.S MUSANZO,Primary,Ministry of education,2015
-1.449305556,29.708,165,NORTH,BURERA,GAHUNGA,RWASA,KABANGA,C.S KABAYA,Primary,Ministry of education,2015
-1.818972222,29.849472222,166,NORTH,GAKENKE,RULI,RULI,BARIZA,E.P RULI,Primary,Ministry of education,2015
-1.580888888,29.773527778,167,NORTH,GAKENKE,KAMUBUGA,MBATABATA,MBATABATA,C.S MBATABATA,Primary,Ministry of education,2015
-1.588305556,29.793138889,168,NORTH,GAKENKE,KAMUBUGA,KAMUBUGA,RUGARI,C.S RUGARI,Primary,Ministry of education,2015
-1.573472222,29.785972222,169,NORTH,GAKENKE,KAMUBUGA,KAMUBUGA,GASEBEYA,G.S KAMUBUGA,Primary,Ministry of education,2015
-1.583611111,29.826444444,170,NORTH,GAKENKE,KAMUBUGA,RUKORE,TABA,C.S RUKORE II,Primary,Ministry of education,2015
-1.583888889,29.724722222,171,NORTH,GAKENKE,KIVURUGA,RUGIMBU,RURAMBO,E.P JOMBA,Primary,Ministry of education,2015
-1.594916666,29.750361111,172,NORTH,GAKENKE,KIVURUGA,GASIZA,BUSHOKA,E.P BUSHOKA,Primary,Ministry of education,2015
-1.618138889,29.767388889,173,NORTH,GAKENKE,KIVURUGA,RUHINGA,RUGESHI,E.P BURANGA,Primary,Ministry of education,2015
-1.611222223,29.750444444,174,NORTH,GAKENKE,KIVURUGA,CYINTARE,NYARUBUYE,E.P CYINTARE,Primary,Ministry of education,2015
-1.757777778,29.867583333,175,NORTH,GAKENKE,RUSHASHI,RWANKUBA,GIHETA,E.P RWANKUBA,Primary,Ministry of education,2015
-1.687055555,29.709722222,176,NORTH,GAKENKE,MUZO,RWA,GIHORORO,E.P RWA,Primary,Ministry of education,2015
-1.721416667,29.68025,177,NORTH,GAKENKE,MUZO,KABATEZI,GITABI,E.P GITABI,Primary,Ministry of education,2015
-1.732361111,29.709944444,178,NORTH,GAKENKE,MUZO,MWIYANDO,KAGANO,E.P KIRIBA,Primary,Ministry of education,2015
-1.696638889,29.700888889,179,NORTH,GAKENKE,MUZO,RWA,KABERE,E.P GIKO,Primary,Ministry of education,2015
-1.685527778,29.7385,180,NORTH,GAKENKE,MUZO,KIRYAMO,RUGARAMA,E.P KIRYAMO,Primary,Ministry of education,2015
-1.699972222,29.74975,181,NORTH,GAKENKE,MUZO,KIRYAMO,AKAMAGAJU,E.P GAHONDO,Primary,Ministry of education,2015
-1.599111111,29.668916667,182,NORTH,GAKENKE,RUSASA,RUREMBO,NYAKABUNGO,E.P RUREMBO PEP  II,Primary,Ministry of education,2015
-1.57125,29.708416667,183,NORTH,GAKENKE,CYABINGO,MUHAZA,MUHAZA,E.P MUHAZA,Primary,Ministry of education,2015
-1.667444444,29.749222222,184,NORTH,GAKENKE,JANJA,KARUKUNGU,KARAMA,KARAMA,Primary,Ministry of education,2015
-1.643777778,29.679666667,185,NORTH,GAKENKE,JANJA,GAKINDO,BUKERERA,GAKENKE ADVENTISTE,Primary,Ministry of education,2015
-1.763916667,29.813055555,186,NORTH,GAKENKE,COKO,NYANZA,KAVUMU,E.P COKO,Primary,Ministry of education,2015
-1.748555556,29.819833334,187,NORTH,GAKENKE,COKO,KIRUKU,KIRUKU,E.P MUCUMAZO,Primary,Ministry of education,2015
-1.751111111,29.84225,188,NORTH,GAKENKE,COKO,KIRUKU,BUHULI,E.P MUBUGA I,Primary,Ministry of education,2015
-1.626666667,29.683611111,189,NORTH,GAKENKE,BUSENGO,BIRAMBO,NYARUBANDE,CYIBUMBA,Primary,Ministry of education,2015
-1.671805556,29.763666666,190,NORTH,GAKENKE,GAKENKE,Nganzo, ,Giramahoro,Primary,Ministry of education,2015
-1.742,29.739166667,191,NORTH,GAKENKE,MATABA,GIKOMBE,MUYAGA,E.P MUYAGA,Primary,Ministry of education,2015
-1.775333333,29.840833333,192,NORTH,GAKENKE,RULI,BUSORO,KABARE,EAR NKOTO,Pre-Primary,Ministry of education,2015
-1.784888889,29.880777777,193,NORTH,GAKENKE,MUHONDO,MUSENYI,MUSENYI,E.M MUSENYI,Pre-Primary,Ministry of education,2015
-1.817111111,29.864138889,194,NORTH,GAKENKE,MUHONDO,RWINKUBA,CYIMBOGO,E.M RWINKUBA,Pre-Primary,Ministry of education,2015
-1.819333334,29.8905,195,NORTH,GAKENKE,MUHONDO,GIHINGA,GIHINGA,E.P MUHONDO,Pre-Primary,Ministry of education,2015
-1.846111112,29.89475,196,NORTH,GAKENKE,MUHONDO,BWENDA,GATARE,G.S BWENDA,Pre-Primary,Ministry of education,2015
-1.75775,29.866611111,197,NORTH,GAKENKE,RUSHASHI,RWANKUBA,GIHETA,E.M RWANKU,Pre-Primary,Ministry of education,2015
-1.723583334,29.66225,198,NORTH,GAKENKE,MUVUNGA,MUTEGO,KAMASANZE,E.M KAMASANZE,Pre-Primary,Ministry of education,2015
-1.638694444,29.634777778,199,NORTH,GAKENKE,RUSASA,RUMBI,BWANAMO,E.P NYANGE,Pre-Primary,Ministry of education,2015
-1.603055556,29.666277777,200,NORTH,GAKENKE,RUSASA,RUREMBO,NYAKABUNGO,EAR NYONIRIMA,Pre-Primary,Ministry of education,2015
-1.583666667,29.684972222,201,NORTH,GAKENKE,CYABINGO,MURAMBA,GATARE,TETAMWANA,Pre-Primary,Ministry of education,2015
-1.589055556,29.678972222,202,NORTH,GAKENKE,CYABINGO,MUTANDA,MUTANDA,E.M MUTANDA,Pre-Primary,Ministry of education,2015
-1.575527777,29.70075,203,NORTH,GAKENKE,CYABINGO,MUHORORO,KABUNGWE,E.M MUHORORO,Pre-Primary,Ministry of education,2015
-1.581555556,29.709222222,204,NORTH,GAKENKE,CYABINGO,MUHAZA,BUSOGA,E.M MUHAZA,Pre-Primary,Ministry of education,2015
-1.584583334,29.720194445,205,NORTH,GAKENKE,CYABINGO,MUHAZA,RUTARAMIKO,E.M KARAMEMWANA,Pre-Primary,Ministry of education,2015
-1.665166667,29.66225,206,NORTH,GAKENKE,MUGUNGA,RUTABO,GACEMERI,E.P GATONDE,Pre-Primary,Ministry of education,2015
-1.638222222,29.818277778,207,NORTH,GAKENKE,KARAMBO,KIREBE,BUKUNGA,G.S.KIREBE,Pre-Primary,Ministry of education,2015
-1.628611111,29.839166667,208,NORTH,GAKENKE,KARAMBO,KARAMB,CYUMBA,G.S.KARAMBO,Primary,Ministry of education,2015
-1.614805556,29.831694444,209,NORTH,GAKENKE,KARAMBO,KARAMBO,GATORERO,GATORERO,Primary,Ministry of education,2015
-1.648444444,29.822138889,210,NORTH,GAKENKE,KARAMBO,KANYANZAMAREMBO,MAREMBO,KANYANZA,Primary,Ministry of education,2015
-1.622666666,29.819166666,211,NORTH,GAKENKE,KARAMBO,KIREBE,KAVUMU,KAVUMU,Primary,Ministry of education,2015
-1.636694445,29.786805555,212,NORTH,GAKENKE,NEMBA,MUCACA,CYAHAFI,MARGUERITE NASEAU,Pre-Primary,Ministry of education,2015
-1.816638889,29.827555555,213,NORTH,GAKENKE,RULI,JANGO,MUBUGA,E.P JANGO,Primary,Ministry of education,2015
-1.860111111,29.85575,214,NORTH,GAKENKE,RULI,RWESERO,GISIZI,E.P GIHANDE,Primary,Ministry of education,2015
-1.837722222,29.832083333,215,NORTH,GAKENKE,RULI,GIKINGO,KABINGO,E.P GIKINGO,Primary,Ministry of education,2015
-1.788833333,29.8695,216,NORTH,GAKENKE,MUHONDO,HURO,HURO,E.P HURO,Primary,Ministry of education,2015
-1.820194445,29.909083333,217,NORTH,GAKENKE,MUHONDO,BUSAKE,BUSAKE,E.P BUSAKE,Primary,Ministry of education,2015
-1.723555556,29.836111111,218,NORTH,GAKENKE,RUSHASHI,BULIMBA,KIVUMU,TARE,Primary,Ministry of education,2015
-1.710777778,29.841916667,219,NORTH,GAKENKE,RUSHASHI,JOMA,RUGARAMA,E.P JOMA,Primary,Ministry of education,2015
-1.723111111,29.852638889,220,NORTH,GAKENKE,RUSHASHI,JOMA,NYAGASOZI,NGANGE,Primary,Ministry of education,2015
-1.703611111,29.837472223,221,NORTH,GAKENKE,RUSHASHI,MBOGO,GISANZE,E.P ST.LUCK MBOGO,Primary,Ministry of education,2015
-1.73075,29.691416666,222,NORTH,GAKENKE,MUZO,KABATEZI,GASAVE,E.P CURUGUSI,Primary,Ministry of education,2015
-1.676555556,29.841861111,223,NORTH,GAKENKE,GASHENYI,RUKURA,NYAMATAHA,MURANDI,Primary,Ministry of education,2015
-1.641583333,29.853805555,224,NORTH,GAKENKE,GASHENYI,NYACYINA,RUGARAMA,NYACYINA,Primary,Ministry of education,2015
-1.593555555,29.846,225,NORTH,GAKENKE,GASHENYI,RUTABO,KANWA,RUTABO,Primary,Ministry of education,2015
-1.655111111,29.838111111,226,NORTH,GAKENKE,GASHENYI,TABA,BUSARO,KANGOMBA,Primary,Ministry of education,2015
-1.665444444,29.850888889,227,NORTH,GAKENKE,GASHENYI,RUTENDERI,MURAMBO,RUTENDERI,Primary,Ministry of education,2015
-1.639666666,29.66425,228,NORTH,GAKENKE,RUSASA,KAMONYI,RURAMBI,E.P RUSASA,Primary,Ministry of education,2015
-1.563472223,29.693277778,229,NORTH,GAKENKE,CYABINGO,MUHORORO,TONGOBURO,C.S GAKORO,Primary,Ministry of education,2015
-1.599,29.691361111,230,NORTH,GAKENKE,CYABINGO,RUKORE,RUKORE,C.S RUKORE I,Primary,Ministry of education,2015
-1.67975,29.647305555,231,NORTH,GAKENKE,MUGUNGA,RWAMAMBE,KANYINYA,E.P MUNANIRA,Primary,Ministry of education,2015
-1.716416667,29.653305555,232,NORTH,GAKENKE,MUGUNGA,MUTEGO,NGANZO,E.P MUTEGO,Primary,Ministry of education,2015
-1.736388889,29.807666666,233,NORTH,GAKENKE,MINAZI,GASIHO,GAHOMBO,E.P GASIHO,Primary,Ministry of education,2015
-1.710416667,29.811527777,234,NORTH,GAKENKE,MINAZI,RABA,GAHARO,E.P KAREBERO,Primary,Ministry of education,2015
-1.757861111,29.761027778,235,NORTH,GAKENKE,MINAZI,MURAMBI,GISOVU,E.P MINAZI,Primary,Ministry of education,2015
-1.763194445,29.785222222,236,NORTH,GAKENKE,MINAZI,MURAMBI,NYANZA,E.P MURAMBI,Primary,Ministry of education,2015
-1.670388889,29.705972222,237,NORTH,GAKENKE,JANJA,GASHYAMBA,GITOVU,C.S KIVUNE,Primary,Ministry of education,2015
-1.680805556,29.679277778,238,NORTH,GAKENKE,JANJA,GATWA,GITEGA,C. S 'AMIS' APAX JANJA,Primary,Ministry of education,2015
-1.635583333,29.70925,239,NORTH,GAKENKE,BUSENGO,RUHANGA,GASHIRWE,BUSENGO,Primary,Ministry of education,2015
-1.635055556,29.709333333,240,NORTH,GAKENKE,BUSENGO,BUTERERI,BUTERERI,GAHAMA,Primary,Ministry of education,2015
-1.647083333,29.748777778,241,NORTH,GAKENKE,BUSENGO,KIRABO,KIRABO,KIRABO,Primary,Ministry of education,2015
-1.656222222,29.72725,242,NORTH,GAKENKE,BUSENGO,KIRABO,RUSEBEYA,RWINGOMA,Primary,Ministry of education,2015
-1.662916666,29.816888889,243,NORTH,GAKENKE,GAKENKE,Buheta,Mucuro,Buheta,Primary,Ministry of education,2015
-1.649777778,29.801916667,244,NORTH,GAKENKE,GAKENKE,Rusagara,Kabaya,Gakenke protestant,Primary,Ministry of education,2015
-1.692305556,29.761055556,245,NORTH,GAKENKE,GAKENKE,Nganzo,Karuganda,Karuganda,Primary,Ministry of education,2015
-1.709361111,29.781027778,246,NORTH,GAKENKE,MATABA,BUYANGE,NYAMIYAGA,E.P BUYANGE,Primary,Ministry of education,2015
-1.740805555,29.723027777,247,NORTH,GAKENKE,MATABA,GIKOMBE,MUNINI,E.P MUNINI,Primary,Ministry of education,2015
-1.743833333,29.881416666,248,NORTH,GAKENKE,MUYONGWE,NGANZO,MUHORORO,E.P NGANZOII,Primary,Ministry of education,2015
-1.698944444,29.876666667,249,NORTH,GAKENKE,MUYONGWE,KARYANGO,MAHAHA,E.P MUGERA,Primary,Ministry of education,2015
-1.641555556,29.78675,250,NORTH,GAKENKE,NEMBA,MUCACA,CYAHAFI,MBUGA,Primary,Ministry of education,2015
-1.621083333,29.802277778,251,NORTH,GAKENKE,NEMBA,GISOZI,MUSHUBI,MUSHUBI,Primary,Ministry of education,2015
-1.618055556,29.783944445,252,NORTH,GAKENKE,NEMBA,MUCACA,KIRUHURA,NEMBA II,Primary,Ministry of education,2015
-1.628972222,29.774166667,253,NORTH,GAKENKE,NEMBA,GAHINGA,BUKURURA,GAHINGA,Primary,Ministry of education,2015
-1.818555556,29.849583333,254,NORTH,GAKENKE,RULI,RULI,BARIZA,E.S.P RULI,Secondary,Ministry of education,2015
-1.817166666,29.849222222,255,NORTH,GAKENKE,RULI,RULI,BARIZA,E.S APEM,Secondary,Ministry of education,2015
-1.571777778,29.785694445,256,NORTH,GAKENKE,KAMUBUGA,KAMUBUGA,GASEBEYA,G.S KAMUBUGA,Secondary,Ministry of education,2015
-1.606805555,29.756638889,257,NORTH,GAKENKE,KIVURUGA,CYINTARE,BIGOGWE,E.S BUHUGA,Secondary,Ministry of education,2015
-1.721888889,29.851472223,258,NORTH,GAKENKE,RUSHASHI,JOMA,NYAGASOZI,EAV RUSHASHI,Secondary,Ministry of education,2015
-1.757694444,29.865527777,259,NORTH,GAKENKE,RUSHASHI,RWANKUBA,GIHETA,GSCIM RWANKUBA,Secondary,Ministry of education,2015
-1.696611111,29.828388889,260,NORTH,GAKENKE,GASHENYI,RUKURA,KIRAMBO,CMUR RUSHASHI,Secondary,Ministry of education,2015
-1.651222222,29.857444445,261,NORTH,GAKENKE,GASHENYI,NYACYINA,MUKIRA,G.S NYACYINA,Secondary,Ministry of education,2015
-1.640111111,29.672916667,262,NORTH,GAKENKE,RUSASA,KAMONYI,BURINDA,VTC RUSASA,Secondary,Ministry of education,2015
-1.582916667,29.688,263,NORTH,GAKENKE,CYABINGO,MURAMBA,GAHAMA,E.S CYABINGO,Secondary,Ministry of education,2015
-1.65675,29.666527778,264,NORTH,GAKENKE,MUGUNGA,RUTABO,GATONDE,E.S GATONDE,Secondary,Ministry of education,2015
-1.675916667,29.678111111,265,NORTH,GAKENKE,JANJA,GAKINDO,KABUSORO,COLLEGE NKUNDUBUREZI,Secondary,Ministry of education,2015
-1.679361111,29.677666666,266,NORTH,GAKENKE,JANJA,GATWA,GITEGA,G.S de JANJA,Secondary,Ministry of education,2015
-1.683833333,29.674444445,267,NORTH,GAKENKE,JANJA,GATWA,GITEGA,VTC JANJA,Secondary,Ministry of education,2015
-1.627055556,29.708083333,268,NORTH,GAKENKE,BUSENGO,MWUMBA,RUTENGA,APEBU,Secondary,Ministry of education,2015
-1.691527778,29.761861111,269,NORTH,GAKENKE,GAKENKE,Nganzo,Karuganda,ESSt Joseph Karuganda,Secondary,Ministry of education,2015
-1.638194444,29.818305556,270,NORTH,Gakenke,Karambo,Kirebe, , ,Secondary,Ministry of education,2015
-1.725111111,29.74325,271,NORTH,GAKENKE,MATABA,NYUNDO,RUHANGA,LYCEE CATHOLIQUE St ALAIN MATABA,Secondary,Ministry of education,2015
-1.631333334,29.791527778,272,NORTH,GAKENKE,NEMBA,GISOZI,KANZOKA,E.S.NYARUTOVU,Secondary,Ministry of education,2015
-1.638138889,29.789277778,273,NORTH,GAKENKE,NEMBA,GISOZI,KARUKARA,APRODESOC-NEMBA,Secondary,Ministry of education,2015
-1.633361111,29.755222222,274,NORTH,GAKENKE,KIVURUGA,RUHINGA,KAROMO,G.S RWAKIRARI,Secondary,Ministry of education,2015
-1.598416667,29.734555556,275,NORTH,GAKENKE,KIVURUGA,GASIZA,NTURO,G.S KAGEYO,Secondary,Ministry of education,2015
-1.713305556,29.677111112,276,NORTH,GAKENKE,MUZO,KABATEZI,RUSORORO,G.S RUSORO,Secondary,Ministry of education,2015
-1.701194445,29.667027778,277,NORTH,GAKENKE,MUZO,MUBUGA,MUBUGA,G.S MUBUGA II,Secondary,Ministry of education,2015
-1.707694444,29.732722222,278,NORTH,GAKENKE,MUZO,KIRYAMO,MUNYINYA,G.S MWUMBA,Secondary,Ministry of education,2015
-1.606805555,29.653416667,279,NORTH,GAKENKE,RUSASA,NYUNDO,NYUNDO,G.S NYUNDO II,Secondary,Ministry of education,2015
-1.684555555,29.674222222,280,NORTH,GAKENKE,JANJA,GATWA,KINOKO,G.S NOTRE Damme des Graces Janja,Secondary,Ministry of education,2015
-1.801555556,29.792694444,281,NORTH,GAKENKE,COKO,NYANGE,GASEKE,G.S CYANIKA,Secondary,Ministry of education,2015
-1.781388889,29.828277778,282,NORTH,GAKENKE,COKO,MBILIMA,BURENGO,G.S RWAHI,Secondary,Ministry of education,2015
-1.740166667,29.848027778,283,NORTH,GAKENKE,COKO,KIRUKU,GATARE,G.S KIRUKU,Secondary,Ministry of education,2015
-1.712055556,29.765888889,284,NORTH,GAKENKE,MATABA,NYUNDO,KARIMBI,G.S NYUDO I,Secondary,Ministry of education,2015
-1.633805556,29.787527778,285,NORTH,GAKENKE,NEMBA,MUCACA,CYAHAFI,G.S.NEMBA I,Secondary,Ministry of education,2015
-1.83375,29.807444444,286,NORTH,GAKENKE,RULI,JANGO,GITONDE,G.S BYERWA,Secondary,Ministry of education,2015
-1.799444444,29.844472222,287,NORTH,GAKENKE,RULI,BUSORO,CYOGANYONI,G.S CONGOLI,Secondary,Ministry of education,2015
-1.580888889,29.819,288,NORTH,GAKENKE,KAMUBUGA,KIDOMO,RUTAGARA,G.S MURAMBO,Secondary,Ministry of education,2015
-1.802111111,29.894472223,289,NORTH,GAKENKE,MUHONDO,RUGANDA,MUBUGA,G.S MUHONDO/APAPEM,Secondary,Ministry of education,2015
-1.8265,29.872833333,290,NORTH,GAKENKE,MUHONDO,MUSAGARA,CYENDA,G.S MUSAGARA,Secondary,Ministry of education,2015
-1.795638889,29.907388889,291,NORTH,GAKENKE,MUHONDO,RUGANDA,RUGANDA,G.S RUGANDA,Secondary,Ministry of education,2015
-1.749333333,29.870027778,292,NORTH,GAKENKE,RUSHASHI,RWANKUBA,KARUSHASHI,G.S Marie Reine Karushashi,Secondary,Ministry of education,2015
-1.722888889,29.865666666,293,NORTH,GAKENKE,RUSHASHI,KAGEYO,KABEZA,E.S KARUNGU,Secondary,Ministry of education,2015
-1.682611111,29.859222222,294,NORTH,GAKENKE,RUSHASHI,BUSANANE,GISIZA,G.S BUSANANE,Secondary,Ministry of education,2015
-1.651472223,29.64775,295,NORTH,GAKENKE,RUSASA,MURAMBI,KIREHE,G.S MURAMBI II,Secondary,Ministry of education,2015
-1.584444444,29.6835,296,NORTH,GAKENKE,CYABINGO,MURAMBA,GATARE,G.S MURAMBA,Secondary,Ministry of education,2015
-1.694527778,29.649611111,297,NORTH,GAKENKE,MUGUNGA,NKOMANE,KANABA,G.S MUGUNGA,Secondary,Ministry of education,2015
-1.738805556,29.788916667,298,NORTH,GAKENKE,MINAZI,MUNYANA,KIVUBA,G.S ST. Joseph Munyana,Secondary,Ministry of education,2015
-1.650694444,29.687472222,299,NORTH,GAKENKE,JANJA,GAKINDO,BUNYIRONKO,G.S GAKENKE PUBLIQUE,Secondary,Ministry of education,2015
-1.671138889,29.721722223,300,NORTH,GAKENKE,JANJA,KARUKUNGU,RUTARE,E.S Saint Pierre Rutare,Secondary,Ministry of education,2015
-1.631277778,29.7345,301,NORTH,GAKENKE,BUSENGO,KAMINA,KAMINA,KAMINA,Secondary,Ministry of education,2015
-1.620805556,29.7115,302,NORTH,GAKENKE,BUSENGO,BUTERERI,RUBAGA,RUBAGA,Secondary,Ministry of education,2015
-1.644138889,29.708972222,303,NORTH,GAKENKE,BUSENGO,RUHANGA,KABUGIRI,RUHANGA,Secondary,Ministry of education,2015
-1.682583333,29.792694445,304,NORTH,GAKENKE,GAKENKE,Kagoma,Musave,GS musave,Secondary,Ministry of education,2015
-1.654805556,29.777027778,305,NORTH,GAKENKE,GAKENKE,Rusagara,Mazinga,GS Nganzo I,Secondary,Ministry of education,2015
-1.68775,29.818833334,306,NORTH,GAKENKE,GAKENKE,Buheta,Gihemba,GS Rukura,Secondary,Ministry of education,2015
-1.721138889,29.743722222,307,NORTH,GAKENKE,MATABA,NYUNDO,MATABA,G.S MATABA,Secondary,Ministry of education,2015
-1.722083333,29.88425,308,NORTH,GAKENKE,MUYONGWE,GISIZA,RUHOKO,G.S MUYONGWE,Secondary,Ministry of education,2015
-1.770416667,29.893166667,309,NORTH,GAKENKE,MUYONGWE,BUMBA,BUMBA,G.S BUMBA,Secondary,Ministry of education,2015
-1.868361111,30.08125,310,KIGALI CITY,GASABO,JABANA,AKAMATAMU,MUREHE,NYACYONGA PRIMARY SCHOOL,Primary,Ministry of education,2015
-1.867583334,30.08525,311,KIGALI CITY,GASABO,JABANA,AKAMATAMU,NYACYONGA,CATCH UP,Primary,Ministry of education,2015
-1.973805556,30.215416666,312,KIGALI CITY,GASABO,RUSORORO,NYAGAHINGA,GASHARARA,EP RUSORORO,Primary,Ministry of education,2015
-1.911805555,30.256388889,313,KIGALI CITY,GASABO,RUSORORO,KINYANA,KINYANA,EP GICACA II,Primary,Ministry of education,2015
-1.927472222,30.223416666,314,KIGALI CITY,GASABO,RUSORORO,MBANDAZI,MUGEYO,EP MBANDAZI,Primary,Ministry of education,2015
-1.956388889,30.17075,315,KIGALI CITY,GASABO,NDERA,KIBENGA, ,BRIGTH LIGHT,Primary,Ministry of education,2015
-1.944527778,30.154305555,316,KIGALI CITY,GASABO,NDERA,MASORO,MUNINI,MUNINI PRIMARY SCHOOL,Primary,Ministry of education,2015
-1.956111111,30.081722222,317,KIGALI CITY,GASABO,KIMIHURURA,KIMIHURURA,UMUTEKANO,EP KIMIHURURA,Primary,Ministry of education,2015
-1.935666666,30.093444445,318,KIGALI CITY,GASABO,KACYIRU,KAMATAMU,URUHONGORE,EP SOS,Primary,Ministry of education,2015
-1.938,30.084333333,319,KIGALI CITY,GASABO,KACYIRU,KAMATAMU,RWINZOVU,EP KACYIRU I,Primary,Ministry of education,2015
-1.892611111,30.10275,320,KIGALI CITY,GASABO,KINYINYA,GASHARU,RWANKUBA,EP RWANKUBA,Primary,Ministry of education,2015
-1.924111112,30.061055556,321,KIGALI CITY,GASABO,GISOZI,RUHANGO,MURAMBI,EP GISOZI II,Primary,Ministry of education,2015
-1.952166666,30.118583334,322,KIGALI CITY,GASABO,REMERA,RUKIRI II,AMAHORO,REMERA CATHOLIQUE II,Primary,Ministry of education,2015
-1.9315,30.044416666,323,KIGALI CITY,GASABO,GATSATA,NYAMABUYE,UWAGATOVU,EP GATSATA II,Primary,Ministry of education,2015
-1.926833333,30.045305555,324,KIGALI CITY,GASABO,GATSATA,NYAMUGALI, , ,Primary,Ministry of education,2015
-1.878111111,30.034027778,325,KIGALI CITY,GASABO,JALI,NYAKABUNGO, ,EP CYUGA,Primary,Ministry of education,2015
-1.931888889,30.1145,326,KIGALI CITY,GASABO,KIMIRONKO,KIBAGABAGA,RUGERO,ECOLE PRIMAIRE KIBAGABAGA,Primary,Ministry of education,2015
-1.876861111,30.101777778,327,KIGALI CITY,GASABO,NDUBA,GASANGE,AKAGARAMA,EP GASANZE,Primary,Ministry of education,2015
-1.851194444,30.135611111,328,KIGALI CITY,GASABO,NDUBA,SHANGO,KAMUHOZA,EP SHANGO,Primary,Ministry of education,2015
-1.830305555,30.104416667,329,KIGALI CITY,GASABO,NDUBA,GASURAS,GASHINYA,EP SHA,Primary,Ministry of education,2015
-1.862888888,30.238083333,330,KIGALI CITY,GASABO,GIKOMERO,KIBARA,NOMBE,EP KIBARA,Primary,Ministry of education,2015
-1.862555555,30.0695,331,KIGALI CITY,GASABO,JABANA,KIDASHYA,AGASEKABUYE,JIJUKA-UBUDEHE NURSURY SCHOOL,Pre-Primary,Ministry of education,2015
-1.977805556,30.224388889,332,KIGALI CITY,GASABO,RUSORORO,KABUGA,MASANGO,EDEN GARDEN,Pre-Primary,Ministry of education,2015
-1.982111111,30.227444444,333,KIGALI CITY,GASABO,RUSORORO,KABUGA I,KALISIMBI,SUN SHINE ACADENY,Pre-Primary,Ministry of education,2015
-1.975083333,30.223333333,334,KIGALI CITY,GASABO,RUSORORO,KABUGA I,AMAHORO,VICTORY NURSERY SCHOOL,Pre-Primary,Ministry of education,2015
-1.945805556,30.242722222,335,KIGALI CITY,GASABO,RUSORORO,RUHANGA,RUGENDE,GOOD HOPE,Pre-Primary,Ministry of education,2015
-1.951916666,30.23525,336,KIGALI CITY,GASABO,RUSORORO,MBANDAZI,CYERU,CYERU NURSERY SCHOOL,Pre-Primary,Ministry of education,2015
-1.93775,30.229388889,337,KIGALI CITY,GASABO,RUSORORO,MBANDAZI,MUGEYO,MUGEYO NURSERY SCHOOL,Pre-Primary,Ministry of education,2015
-1.916333334,30.237083334,338,KIGALI CITY,GASABO,RUSORORO,GASAGARA,RUGAGI,RUGAGI NURSERY SCHOOL,Pre-Primary,Ministry of education,2015
-1.940027778,30.254361111,339,KIGALI CITY,GASABO,RUSORORO,RUHANGA,NYAGACYAMO,NYAGACYAMO NURSERY SCHOOL,Pre-Primary,Ministry of education,2015
-1.954083333,30.194194444,340,KIGALI CITY,GASABO,NDERA,RUDASHYA,RUHOGO,HUMUKA NURSERY SCHOOL,Pre-Primary,Ministry of education,2015
-1.95725,30.191722222,341,KIGALI CITY,GASABO,NDERA,CYARUZINGE,AYABAKORA,GASOGI CATHOLIC NURSERY SCHOOL,Pre-Primary,Ministry of education,2015
-1.958444444,30.168916667,342,KIGALI CITY,GASABO,NDERA,KIBENGA, ,HOZUMWANA NURSERY SCHOOL,Pre-Primary,Ministry of education,2015
-1.957527778,30.168861112,343,KIGALI CITY,GASABO,NDERA,KIBENGA,NEZERWA,NEZERWA NURSERY SCHOOL,Pre-Primary,Ministry of education,2015
-1.944472222,30.1725,344,KIGALI CITY,GASABO,NDERA,KIBENGA,RUNYONZA,GOOD WILL,Pre-Primary,Ministry of education,2015
-1.935444444,30.215388889,345,KIGALI CITY,GASABO,NDERA,BWIZA,BUCYEMBA,BUCYEMBA NURSARY,Pre-Primary,Ministry of education,2015
-1.961805555,30.094944444,346,KIGALI CITY,GASABO,KIMIHURURA,RUGANDO,GASASA,LITTLE BEARS,Pre-Primary,Ministry of education,2015
-1.959805556,30.081861111,347,KIGALI CITY,GASABO,KIMIHURURA,KIMIHURURA, UBUMWE,KIMIHURURA NURSERY SCHOOL,Pre-Primary,Ministry of education,2015
-1.935444445,30.081083333,348,KIGALI CITY,GASABO,KACYIRU,KIBAZA,IHURIRO,KIMIHURURA NURSERY SCHOOL,Pre-Primary,Ministry of education,2015
-1.938583333,30.090861111,349,KIGALI CITY,GASABO,KACYIRU,KAMATAMU,URUHONGORE,SOS KINDERGATERN,Pre-Primary,Ministry of education,2015
-1.93375,30.065194445,350,KIGALI CITY,GASABO,KACYIRU,KAMUTWA,URUGERO,MEG FOUNDATION,Pre-Primary,Ministry of education,2015
-1.941777778,30.089638889,351,KIGALI CITY,GASABO,KACYIRU,KAMATAMU,ITETERO,KPMS JARDIN VERT,Pre-Primary,Ministry of education,2015
-1.909222222,30.115027778,352,KIGALI CITY,GASABO,KINYINYA,GASHARU,AGATARE,PEFA NURSERY SCHOOL,Pre-Primary,Ministry of education,2015
-1.90625,30.081722223,353,KIGALI CITY,GASABO,KINYINYA,KAGUGU,GICIKIZA,BONAVENTURE HOPE SCHOOL,Pre-Primary,Ministry of education,2015
-1.917944444,30.067944445,354,KIGALI CITY,GASABO,GISOZI,MUSEZERO,GASAVE,FRUITS OF HOPE ACADEMY,Pre-Primary,Ministry of education,2015
-1.922055555,30.071027777,355,KIGALI CITY,GASABO,GISOZI,MUSEZERO,GASAVE,SOURCE OF BLESSING SCHOOL,Pre-Primary,Ministry of education,2015
-1.929138889,30.062361111,356,KIGALI CITY,GASABO,GISOZI,RUHANGO,KUMUKENKE,IDEMBE,Pre-Primary,Ministry of education,2015
-1.922138889,30.062555555,357,KIGALI CITY,GASABO,GISOZI,MUSEZERO,AMAJYAMBERE,SAINTE MARIE MONTESSORIE,Pre-Primary,Ministry of education,2015
-1.92675,30.057944445,358,KIGALI CITY,GASABO,GISOZI,RUHANGO,MURAMBI,IMPUZAMIRYANGO REMEZO,Pre-Primary,Ministry of education,2015
-1.928583334,30.056888889,359,KIGALI CITY,GASABO,GISOZI,RUHANGO,RUKERI,ECOLE MATERNELLE ET EDUCATION DE BASE,Pre-Primary,Ministry of education,2015
-1.919583333,30.066638889,360,KIGALI CITY,GASABO,GISOZI,MUSEZERO,KAGARI,UMURYANGO REMEZO MUSEZERO,Pre-Primary,Ministry of education,2015
-1.9515,30.11425,361,KIGALI CITY,GASABO,REMERA,NYABISINDU,RUGARA,BROTHERHOOD NURSERY SCHOOL,Pre-Primary,Ministry of education,2015
-1.95875,30.117944444,362,KIGALI CITY,GASABO,REMERA,RUKIRU II,AMAHORO,KIGALI INFANTS SCHOOL,Pre-Primary,Ministry of education,2015
-1.8665,30.172333333,363,KIGALI CITY,GASABO,BUMBOGO,NKUZUZU,AKABENEJURU,NKUZUZU NURSERY SCHOOL,Pre-Primary,Ministry of education,2015
-1.895583333,30.137472222,364,KIGALI CITY,GASABO,BUMBOGO,NGARA,RUHINGA,RUHINGA NURSERY SCHOOL,Pre-Primary,Ministry of education,2015
-1.93125,30.141333333,365,KIGALI CITY,GASABO,BUMBOGO,KINYAGA,ZINDIRO,ABILITY NURSERY SCHOOL,Pre-Primary,Ministry of education,2015
-1.904083333,30.129416667,366,KIGALI CITY,GASABO,BUMBOGO,NGARA,BIREMBO,UMUSINGI NURSERY SCHOOL,Pre-Primary,Ministry of education,2015
-1.898555555,30.121694445,367,KIGALI CITY,GASABO,BUMBOGO,NGARA,GISASA,URUMURI NURSERY SCHOOL,Pre-Primary,Ministry of education,2015
-1.925694444,30.046611111,368,KIGALI CITY,GASABO,GATSATA,NYAMUGALI,AKAMWUNGUZI,GATSATA PARENTS NURSERY SCHOOL,Pre-Primary,Ministry of education,2015
-1.929416667,30.046638889,369,KIGALI CITY,GASABO,GATSATA,NYAMABUYE,NYAKALIBA,NEW HOPE NURSERY SCHOOL,Pre-Primary,Ministry of education,2015
-1.927527778,30.042861111,370,KIGALI CITY,GASABO,GATSATA,NYAMUGALI,ISANGANO,LE BON BELGE NURSERY SCHOOL,Pre-Primary,Ministry of education,2015
-1.928083333,30.0455,371,KIGALI CITY,GASABO,GATSATA,NYAMABUYE,RUVUMERO,HAGURUKA NURSERY SCHOOL,Pre-Primary,Ministry of education,2015
-1.941444445,30.035361111,372,KIGALI CITY,GASABO,GATSATA,NYAMABUYE,RUBONOBONO,SHALOOM NURSERY SCHOOL,Pre-Primary,Ministry of education,2015
-1.907333333,30.047138889,373,KIGALI CITY,GASABO,GATSATA,KARURUMA,AKIMIHIGO,APPEGI,Pre-Primary,Ministry of education,2015
-1.940388889,30.040027778,374,KIGALI CITY,GASABO,GATSATA,NYAMABUYE,AGAKOMEYE,RUBONOBONO PARENTS NURSERY SCHOOL,Pre-Primary,Ministry of education,2015
-1.914583333,30.030277778,375,KIGALI CITY,GASABO,JALI,NYABURIBA,NYARUREMBO,LIGHT NURSERY SCHOOL,Pre-Primary,Ministry of education,2015
-1.921027778,30.033888888,376,KIGALI CITY,GASABO,JALI,NYABURIBA,NYARUREMBO,NYABURIBA NURSERY SCHOOL,Pre-Primary,Ministry of education,2015
-1.941055556,30.121888889,377,KIGALI CITY,GASABO,KIMIRONKO,KIBAGABAGA,BURANGA,ECOLE MATERNELLE DES PARENTS DE NYAGATOVU,Pre-Primary,Ministry of education,2015
-1.941444445,30.129694444,378,KIGALI CITY,GASABO,KIMIRONKO,KIBAGABAGA,RAMIRO,MOTHERING OUR FUTURE,Pre-Primary,Ministry of education,2015
-1.831222222,30.129666667,379,KIGALI CITY,GASABO,NDUBA,SHANGO,MIRAMBI,GARDIENNE SHANGO,Pre-Primary,Ministry of education,2015
-1.88025,30.098444445,380,KIGALI CITY,GASABO,NDUBA,GASANZE,AKAGARAMA,READY TO KNOW,Pre-Primary,Ministry of education,2015
-1.827027778,30.099888889,381,KIGALI CITY,GASABO,NDUBA,SHANGO,GATARE,UTUNUMA,Pre-Primary,Ministry of education,2015
-1.866694445,30.125944444,382,KIGALI CITY,GASABO,NDUBA,BUTARE,KIGABIRO,UTUNYANGE,Pre-Primary,Ministry of education,2015
-1.983333333,30.205277777,383,KIGALI CITY,KICUKURO,MASAKA,CYIMO,KIYOVU,STAR SCHOOL,Primary,Ministry of education,2015
-1.847138889,30.078444444,384,KIGALI CITY,GASABO,JABANA,NGIRYI,AGASHARU,EP NGIRYI,Primary,Ministry of education,2015
-1.860111111,30.038,385,KIGALI CITY,GASABO,JABANA,BWERAMVURA,TABA,EP BWERAMVURA,Primary,Ministry of education,2015
-1.979083333,30.229388889,386,KIGALI CITY,GASABO,RUSORORO,KABUGA I,KALISIMBI,LA PEPINIERE,Primary,Ministry of education,2015
-1.979166666,30.228361111,387,KIGALI CITY,GASABO,RUSORORO,KABUGA I,KALISIMBI,LA SOURCE DU SAVOIR,Primary,Ministry of education,2015
-1.966,30.227083333,388,KIGALI CITY,GASABO,RUSORORO,KABUGA II,BWIZA,SPARROW PARENTS PLS,Primary,Ministry of education,2015
-1.977194444,30.223166667,389,KIGALI CITY,GASABO,RUSORORO,NYAGAHINGA,URUMURI,KABUGA PRESBYTERIAN SCHOOL,Primary,Ministry of education,2015
-1.905472222,30.200222222,390,KIGALI CITY,GASABO,NDERA,MUKUYU,JURWE,JURWE,Primary,Ministry of education,2015
-1.950194445,30.089111111,391,KIGALI CITY,GASABO,KIMIHURURA,KAMUKINA,ITUZE,KIGALI HARVEST SCHOOL,Primary,Ministry of education,2015
-1.953,30.077555555,392,KIGALI CITY,GASABO,KIMIHURURA,KIMIHURURA,INTAMBWE,ECOLE INTERNATIONNALE DE KIGALI,Primary,Ministry of education,2015
-1.949583333,30.081944445,393,KIGALI CITY,GASABO,KIMIHURURA,KIMIHURURA,IMIHIGO,EPAK,Primary,Ministry of education,2015
-1.926361111,30.078472223,394,KIGALI CITY,GASABO,KINYINYA,GACURIRO,KABUHUNDE I,CITY INFANT SCHOOL,Primary,Ministry of education,2015
-1.899111111,30.084388889,395,KIGALI CITY,GASABO,KINYINYA,KAGUGU,DUSENYI,EP METHODISTE DE BASTINDA,Primary,Ministry of education,2015
-1.925666667,30.079222222,396,KIGALI CITY,GASABO,KINYINYA,GACURIRO,KABUHUNDE I,ECOLE PRIMAIRE DE L'HORIZON,Primary,Ministry of education,2015
-1.9115,30.081805556,397,KIGALI CITY,GASABO,KINYINYA,KAGUGU,RUKINGU,ECOLE SAINT DOMINIQUE,Primary,Ministry of education,2015
-1.920666666,30.073555555,398,KIGALI CITY,GASABO,GISOZI,MUSEZERO,GASAVE,APAPEC IREBERO,Primary,Ministry of education,2015
-1.960194445,30.107472222,399,KIGALI CITY,GASABO,REMERA,RUKIRI I,GISIMENTI,LES HIRONDELLES DE DON BOSCO,Primary,Ministry of education,2015
-1.956555556,30.118833334,400,KIGALI CITY,GASABO,REMERA,RUKIRI II,AMAHORO,ECOLE NOTRE DAME DES ANGES,Primary,Ministry of education,2015
-1.95575,30.101055555,401,KIGALI CITY,GASABO,REMERA,RUKIRI I,AMAJYAMBERE,KIGALI JUNIOR ACADEMY,Primary,Ministry of education,2015
-1.964444444,30.104111111,402,KIGALI CITY,GASABO,REMERA,RUKIRI I,AGASHYITSI,APAPER,Primary,Ministry of education,2015
-1.960555555,30.103583333,403,KIGALI CITY,GASABO,REMERA,RUKIRI I,AMAJYAMBERE,MERE DU VERBE,Primary,Ministry of education,2015
-1.946138889,30.111694444,404,KIGALI CITY,GASABO,REMERA,NYABISINDU,NYABISINDU,KIGALI MUSTARD SEED SCHOOL,Primary,Ministry of education,2015
-1.800027777,30.1475,405,KIGALI CITY,GASABO,RUTUNGA,GASABO,ABANYANGEYO,GASABO PRIMARY SCHOOL,Primary,Ministry of education,2015
-1.844194445,30.193944444,406,KIGALI CITY,GASABO,RUTUNGA,KIGABIRO,KIGABIRO,KAYANGA PRIMARY SCHOOL,Primary,Ministry of education,2015
-1.9125,30.147666666,407,KIGALI CITY,GASABO,BUMBOGO,NYABIKENKE,GIKUMBA,ECOLE PRIMAIRE KARAMA,Primary,Ministry of education,2015
-1.851638888,30.152638889,408,KIGALI CITY,GASABO,BUMBOGO,NYAGASOZI,GISHAKA,EP GISHAKA,Primary,Ministry of education,2015
-1.901111111,30.022472222,409,KIGALI CITY,GASABO,JALI,NYAMITANGA,URUNYINYA,EP JALI CATHOLIQUE,Primary,Ministry of education,2015
-1.932472223,30.134583333,410,KIGALI CITY,GASABO,KIMIRONKO,KIBAGABAGA,RINDIRO,LAFONTAINE,Primary,Ministry of education,2015
-1.937305556,30.118194445,411,KIGALI CITY,GASABO,KIMIRONKO,KIBAGABAGA,KARONGI,COMPLEXE SCOLAIRE LES PETITS POUSSINS,Primary,Ministry of education,2015
-1.952555556,30.136333334,412,KIGALI CITY,GASABO,KIMIRONKO,BIBARE,INYANGE,KIGALI PARENTS' SCHOOL,Primary,Ministry of education,2015
-1.88125,30.221611111,413,KIGALI CITY,GASABO,GIKOMERO,MUNINI,MUTOKEREZWA,GS GIKOMERO,Primary,Ministry of education,2015
-1.867,30.081944444,414,KIGALI CITY,GASABO,JABANA,AKAMATAMU,MUREHE,ALLIANCE HIGH SCHOOL,Secondary,Ministry of education,2015
-1.967916667,30.228583334,415,KIGALI CITY,GASABO,RUSORORO,KABUGAII,BWIZA,NU-VISION HIGH SCHOOL,Secondary,Ministry of education,2015
-1.970666666,30.220888889,416,KIGALI CITY,GASABO,RUSORORO,NYAGAHINGA,GISHARARA,GS APERWA,Secondary,Ministry of education,2015
-1.97725,30.2095,417,KIGALI CITY,GASABO,RUSORORO,NYAGAHINGA,KIGARAMA,RIVIERA HIGH SCHOOL,Secondary,Ministry of education,2015
-1.973583334,30.217583334,418,KIGALI CITY,GASABO,RUSORORO,NYAGAHINGA,GISHARARA,APAER,Secondary,Ministry of education,2015
-1.954166667,30.235527777,419,KIGALI CITY,GASABO,RUSORORO,MBANDAZI,CYERU,KABUGA HIGH SCHOOL,Secondary,Ministry of education,2015
-1.94975,30.173777778,420,KIGALI CITY,GASABO,NDERA,KIBENGA,BAHOZE,PETIT SEMINAIRE NDERA,Secondary,Ministry of education,2015
-1.959555555,30.18475,421,KIGALI CITY,GASABO,NDERA,CYARUZINGE,AYABAKORA,COLLEGE DE L'ESPOIR DE GASOGI,Secondary,Ministry of education,2015
-1.965638889,30.187722222,422,KIGALI CITY,GASABO,NDERA,CYARUZINGE,AYABAKORA,ES GASOGI,Secondary,Ministry of education,2015
-1.964361111,30.171916667,423,KIGALI CITY,GASABO,NDERA,KIBENGA,RUREMBO,COLLEGE DOCTRINA VITAE,Secondary,Ministry of education,2015
-1.955361112,30.169055555,424,KIGALI CITY,GASABO,NDERA,KIBENGA,NEZERWA,GS APRED,Secondary,Ministry of education,2015
-1.957944444,30.09225,425,KIGALI CITY,GASABO,KIMIHURURA,RUGANDO,REBERO,ES KACYIRU,Secondary,Ministry of education,2015
-1.947861111,30.080944444,426,KIGALI CITY,GASABO,KIMIHURURA,KIMIHURURA,IMIHIGO,IFAK,Secondary,Ministry of education,2015
-1.941805555,30.088305556,427,KIGALI CITY,GASABO,KACYIRU,KAMATAMU,URUHONGORE,IFBK,Secondary,Ministry of education,2015
-1.943611111,30.093194444,428,KIGALI CITY,GASABO,KACYIRU,KAMATAMU,BUKINANYANA,APAPER,Secondary,Ministry of education,2015
-1.941388889,30.073416667,429,KIGALI CITY,GASABO,KACYIRU,KAMUTWA,RUGANWA,GLORY SECONDARY SCHOOL,Secondary,Ministry of education,2015
-1.916694445,30.090222222,430,KIGALI CITY,GASABO,KINYINYA,GACURIRO,AKARAMBO,ECOLE TECHNIQUE SOS,Secondary,Ministry of education,2015
-1.924333333,30.078638889,431,KIGALI CITY,GASABO,KINYINYA,GACURIRO,KABUHUNDE I,GACURIRO VOCATIONAL TRAINING CENTER,Secondary,Ministry of education,2015
-1.916694444,30.089166666,432,KIGALI CITY,GASABO,KINYINYA,GACURIRO,KABUHUNDE II,WORLD MISSION SECONDARY SCHOOL,Secondary,Ministry of education,2015
-1.916555555,30.108333334,433,KIGALI CITY,GASABO,KINYINYA,MURAMA,RUSENYI,COLLEGE AMI DES ENFANTS,Secondary,Ministry of education,2015
-1.913694445,30.073277777,434,KIGALI CITY,GASABO,GISOZI,MUSEZERO,BYIMANA,FAWE GIRLS' SCHOOL,Secondary,Ministry of education,2015
-1.943277778,30.104111111,435,KIGALI CITY,GASABO,REMERA,NYARUTARAMA,KAMAHWA,GS ADB NYARUTARAMA,Secondary,Ministry of education,2015
-1.851916667,30.153638889,436,KIGALI CITY,GASABO,BUMBOGO,NYAGASOZI,GISHAKA,ECOLE SECONDAIRE BUMBOGO,Secondary,Ministry of education,2015
-1.938388889,30.120083333,437,KIGALI CITY,GASABO,KIMIRONKO,KIBAGABAGA,RUGERO,SAINT IGNATIUS HIGH SCHOOL,Secondary,Ministry of education,2015
-1.948333333,30.119833334,438,KIGALI CITY,GASABO,KIMIRONKO,BIBARE,UMWEZI,ECOLE TECHNIQUE MUHAZI II,Secondary,Ministry of education,2015
-1.881777778,30.222361111,439,KIGALI CITY,GASABO,GIKOMERO,MUNINI,MUTOKEREZWA,GS GIKOMERO,Secondary,Ministry of education,2015
-1.862472222,30.070611111,440,KIGALI CITY,GASABO,JABANA,AKAMATAMU,MUREHE,GS JABANA,Secondary,Ministry of education,2015
-1.939972222,30.256305556,441,KIGALI CITY,GASABO,RUSORORO,RUHANGA,RUHANGA,GS RUHANGA,Secondary,Ministry of education,2015
-1.949833333,30.173888889,442,KIGALI CITY,GASABO,NDERA,KIBENGA,BAHOZE,GS NDERA,Secondary,Ministry of education,2015
-1.957305556,30.093027778,443,KIGALI CITY,GASABO,KIMIHURURA,RUGANDO,REBERO,ES RUGANDO,Secondary,Ministry of education,2015
-1.932194444,30.063777778,444,KIGALI CITY,GASABO,KACYIRU,KAMUTWA,URWIBUTSO,GS KACYIRU II,Secondary,Ministry of education,2015
-1.913833333,30.108638889,445,KIGALI CITY,GASABO,KINYINYA,MURAMA,RUSENYI,GS KINYINYA,Secondary,Ministry of education,2015
-1.913083333,30.087138889,446,KIGALI CITY,GASABO,KINYINYA,KAGUGU,GICIKIZA,GS KAGUGU CATHOLIQUE,Secondary,Ministry of education,2015
-1.907,30.047638889,447,KIGALI CITY,GASABO,GATSATA,KARURUMA,AKIMIHIGO,GS GIHOGWE CATHOLIQUE,Secondary,Ministry of education,2015
-1.928166666,30.132944445,448,KIGALI CITY,GASABO,KIMIRONKO,KIBAGABAGA,RINDIRO,GROUPE SCOLAIRE KIMIRONKO I,Secondary,Ministry of education,2015
-1.858055556,30.112555556,449,KIGALI CITY,GASABO,NDUBA,MUREMURE,GATOBOTOBO,GS NDUBA,Secondary,Ministry of education,2015
-1.951861111,30.191666667,450,NORTH,GICUMBI,BWISIGE,MUKONO,RWEBISHEKE,G.S MUKONO,Secondary,Ministry of education,2015
-1.885388889,30.068083333,451,KIGALI CITY,GASABO,JABANA,KABUYE,AMASANGANO,GS KABUYE,Secondary,Ministry of education,2015
-1.832472222,30.060527778,452,KIGALI CITY,GASABO,JABANA,NGIRYI,RUBONA,GS RWANYANZA,Secondary,Ministry of education,2015
-1.968972222,30.224305556,453,KIGALI CITY,GASABO,RUSORORO,KABUGA II,GATARE,GS KABUGA,Secondary,Ministry of education,2015
-1.941416666,30.1395,454,KIGALI CITY,GASABO,NDERA,MASORO,MASORO,EXCELLA SCHOOL,Secondary,Ministry of education,2015
-1.942416666,30.206777778,455,KIGALI CITY,GASABO,NDERA,BWIZA,RUHANGARE,GS GASOGI,Secondary,Ministry of education,2015
-1.9675,30.176444444,456,KIGALI CITY,GASABO,NDERA,KIBENGA,URUREMBO,SINAI HILL ACADEMY,Secondary,Ministry of education,2015
-1.935055556,30.080916666,457,KIGALI CITY,GASABO,KACYIRU,KIBAZA,KABAGARI,ES ISLAMIQUE,Secondary,Ministry of education,2015
-1.942888889,30.076055555,458,KIGALI CITY,GASABO,KACYIRU,KAMUTWA,RUGANWA,LA COLOMBIERE SCHOOL,Secondary,Ministry of education,2015
-1.922388889,30.074388889,459,KIGALI CITY,GASABO,GISOZI,MUSEZERO,GASAVE,GS GISOZI I,Secondary,Ministry of education,2015
-1.946888889,30.106638889,460,KIGALI CITY,GASABO,REMERA,NYARUTARAMA,KAMAHWA,WELLSPRING ACADEMY,Secondary,Ministry of education,2015
-1.940666667,30.104416666,461,KIGALI CITY,GASABO,REMERA,NYARUTARAMA,KAMAHWA,GREEN HILLS ACADEMY,Secondary,Ministry of education,2015
-1.820083334,30.168,462,KIGALI CITY,GASABO,RUTUNGA,KIBENGA,ABANYANGEYO,GS RUTUNGA,Secondary,Ministry of education,2015
-1.917305555,30.178111111,463,KIGALI CITY,GASABO,BUMBOGO,MUSAVE,REBERO,GS MUSAVE,Secondary,Ministry of education,2015
-1.883,30.151916666,464,KIGALI CITY,GASABO,BUMBOGO,MVUZO,KIGABIRO,GS BUMBOGO,Secondary,Ministry of education,2015
-1.867805556,30.012277778,465,KIGALI CITY,GASABO,JALI,NKUSI,KIGARAMA,GS RUBINGO,Secondary,Ministry of education,2015
-1.904888889,30.042444444,466,KIGALI CITY,GASABO,JALI,AGATEKO,KABIZOZA,GIHOBWE SECONDARY SCHOOL,Secondary,Ministry of education,2015
-1.932277778,30.116388889,467,KIGALI CITY,GASABO,KIMIRONKO,KIBAGABAGA,NYIRABWANA,KIGALI CHRISTIAN SCHOOL,Secondary,Ministry of education,2015
-1.953305556,30.120444444,468,KIGALI CITY,GASABO,KIMIRONKO,BIBARE,UMWEZI,SAINT PAUL INTERNATIONAL SCHOOL,Secondary,Ministry of education,2015
-1.944027777,30.13375,469,KIGALI CITY,GASABO,KIMIRONKO,BIBARE,INTASHYO,GROUPE SCOLAIRE KIMIRONKO II,Secondary,Ministry of education,2015
-1.889,30.257972222,470,KIGALI CITY,GASABO,GIKOMERO,GICACA,RUGANDA,GS GICACA I,Secondary,Ministry of education,2015
-1.962055556,30.094972223,471,KIGALI CITY,NYARUGENGE,NYARUGENGE,KIYOVU,INDANGAMIRWA,G.S CAMP KIGALI,Secondary,Ministry of education,2015
-1.951138889,30.123083334,472,KIGALI CITY,GASABO,KIMIRONKO,BIBARE,UMWEZI,CITY INFANT SCHOOL,Pre-Primary,Ministry of education,2015
-1.952388889,30.133944444,473,KIGALI CITY,GASABO,KIMIRONKO,BIBARE,INYANGE,ADESOC-VTC,Secondary,Ministry of education,2015
-1.9425,30.176638888,474,KIGALI CITY,GASABO,NDERA,KIBENGA,RUGAZI,SPRINGS ACADEMY,Secondary,Ministry of education,2015
-1.839111111,30.413222222,475,EAST,GATSIBO,KIRAMURUZI,GAKONI,KUMANA,GAKONI ADVENTISTE PRIMARY,Primary,Ministry of education,2015
-1.737833334,30.305861111,476,EAST,GATSIBO,MUHURA,MAMFU,AKAMATAMU,MAMFU EAR,Primary,Ministry of education,2015
-1.737972222,30.285527778,477,EAST,GATSIBO,MUHURA,RUMURI,KABEZA,E.P RUMURI,Primary,Ministry of education,2015
-1.757472223,30.283583334,478,EAST,GATSIBO,MUHURA,TABA,RUHENDA,MUHURA CATHOLIQUE,Primary,Ministry of education,2015
-1.739777778,30.271277778,479,EAST,GATSIBO,MUHURA,TABA,TABA,MUHURA EER,Primary,Ministry of education,2015
-1.673611111,30.379444445,480,EAST,GATSIBO,RUGARAMA,MATARE,MATARE,E.P MATARE,Primary,Ministry of education,2015
-1.691027777,30.447138889,481,EAST,GATSIBO,RUGARAMA,MATUNGURU,NGOMA,MATUNGURU E.P,Primary,Ministry of education,2015
-1.701138889,30.421833333,482,EAST,GATSIBO,RUGARAMA,KANYANGESE,KABEZA,E.P KANYANGESE,Primary,Ministry of education,2015
-1.688638889,30.407916666,483,EAST,GATSIBO,RUGARAMA,GIHUTA,AGATARE,E.P BRIGHT VISION,Primary,Ministry of education,2015
-1.649638889,30.238361111,484,EAST,GATSIBO,KAGEYO,KINTU,KIGANDO,E.P KINTU,Primary,Ministry of education,2015
-1.690388889,30.260638889,485,EAST,GATSIBO,KAGEYO,GITUZA,BUGARAMA,E.P GITUZA,Primary,Ministry of education,2015
-1.66475,30.267972222,486,EAST,GATSIBO,KAGEYO,NYAGISOZI,NYAGISOZI,E.P NYAGISOZI,Primary,Ministry of education,2015
-1.63525,30.267333333,487,EAST,GATSIBO,KAGEYO,BUSETSA,BUSETSA,E.P GITEBWE,Primary,Ministry of education,2015
-1.5445,30.240111112,488,EAST,GATSIBO,NYAGIHANGA,GITINDA,KIZIBA,E.P GITINDA,Primary,Ministry of education,2015
-1.539333333,30.206611111,489,EAST,GATSIBO,NYAGIHANGA,KIBARE,MURAMBI,E.P KIBERA,Primary,Ministry of education,2015
-1.505916667,30.223583334,490,EAST,GATSIBO,NYAGIHANGA,KIBARE,KIBARE,E.P GISHIKIRI,Primary,Ministry of education,2015
-1.750138889,30.371694445,491,EAST,GATSIBO,KIZIGURO,NDATEMWA,GORORA,E.P GORORA,Primary,Ministry of education,2015
-1.778916667,30.276222222,492,EAST,GATSIBO,GASANGE,VIRO,GAHARA II,E.P GAHARA,Primary,Ministry of education,2015
-1.829833333,30.319111111,493,EAST,GATSIBO,GASANGE,KIGABIRO,RUGARAMA,E.P GATEGERO,Primary,Ministry of education,2015
-1.762416667,30.356805555,494,EAST,GATSIBO,MURAMBI,MURAMBI,RYAMPUNGA,E.P GITABURAZA,Primary,Ministry of education,2015
-1.841111111,30.342472222,495,EAST,GATSIBO,MURAMBI,RWANKUBA,NYAGASAMBU,E.P RWANKUBA,Primary,Ministry of education,2015
-1.801194445,30.329694445,496,EAST,GATSIBO,MURAMBI,NYAMIYAGA,KABEZA,E.P NYAMIYAGA,Primary,Ministry of education,2015
-1.618944444,30.21975,497,EAST,GATSIBO,GATSIBO,NYAGAHANGA,NYAGAHANGA,E.P NTAGAHANGA,Primary,Ministry of education,2015
-1.60325,30.262861111,498,EAST,GATSIBO,GATSIBO,MUGERA,KIRARITSI,E.P MUGERA,Primary,Ministry of education,2015
-1.686111111,30.332222222,499,EAST,GATSIBO,REMERA,KIGABIRO,AMATABA,E.P KIRWA,Primary,Ministry of education,2015
-1.750833334,30.333944444,500,EAST,GATSIBO,REMERA,RWARENGA,KABUYE,BUCARURA EER,Primary,Ministry of education,2015
-1.704527778,30.332583333,501,EAST,GATSIBO,REMERA,NYAGAKOMBE,AKABABITO,E.P NYAGASOZI,Primary,Ministry of education,2015
-1.639333333,30.376805555,502,EAST,GATSIBO,GITOKI,BUKOMANE,GAKIRI,E.P GAKIRI,Primary,Ministry of education,2015
-1.651305555,30.299083334,503,EAST,GATSIBO,GITOKI,MPONDWA,TSIMA,E.P TSIMA,Primary,Ministry of education,2015
-1.598083333,30.301583333,504,EAST,GATSIBO,GITOKI,RUBIRA,RWINTAMA,E.P MUKARANGE,Primary,Ministry of education,2015
-1.61675,30.317555556,505,EAST,GATSIBO,GITOKI,KARUBUNGO,KARUBUNGO,E.P MUKARANGE,Primary,Ministry of education,2015
-1.66425,30.365444444,506,EAST,GATSIBO,GITOKI,CYABUSHESHE,CYOTO,E.P CYABUSHESHE,Primary,Ministry of education,2015
-1.58725,30.354138889,507,EAST,GATSIBO,KABARORE,KABEZA,GATOKI,E.P GATOKI,Primary,Ministry of education,2015
-1.61775,30.381638889,508,EAST,GATSIBO,KABARORE,KABARORE,KABARORE I,E.P BRIGHT COMPETENT,Primary,Ministry of education,2015
-1.624472222,30.440583333,509,EAST,GATSIBO,RWIMBOGO,NYAMATETE,GASHENYI,E.P GASHENYI,Primary,Ministry of education,2015
-1.654138889,30.505055555,510,EAST,GATSIBO,RWIMBOGO,MUNINI,KABEZA,E.P KABEZA,Primary,Ministry of education,2015
-1.49375,30.252277778,511,EAST,GATSIBO,NGARAMA,KARAMBI,MISHENYI,E.P BIBARE,Primary,Ministry of education,2015
-1.666861111,30.235805555,512,NORTH,GICUMBI,RUVUNE,GASAMBYA,NYAMIRAMA,EP BUSHWAGARA,Primary,Ministry of education,2015
-1.807527778,30.393361111,513,EAST,GATSIBO,KIRAMURUZI,AKABUGA,BUSHENYI,E.P KIRIMURUZI,Primary,Ministry of education,2015
-1.802472222,30.416694444,514,EAST,GATSIBO,KIRAMURUZI,GAKENKE,AKABINGO,BRIGHT MINDS ACADEMY,Primary,Ministry of education,2015
-1.855361111,30.377611111,515,EAST,GATSIBO,KIRAMURUZI,NYABISINDU,ITABA,E.P NTETE,Primary,Ministry of education,2015
-1.803166667,30.419972222,516,EAST,GATSIBO,KIRAMURUZI,GAKENKE,UMUREHE,E.P GAKENKE,Primary,Ministry of education,2015
-1.777083333,30.401083333,517,EAST,GATSIBO,KIZIGURO,AGAKOMEYE,MURINGA,E.P MURINGA,Primary,Ministry of education,2015
-1.728111111,30.410805556,518,EAST,GATSIBO,KIZIGURO,NDATEMWA,BIDUDU,E.P MURAMBI II,Primary,Ministry of education,2015
-1.743777778,30.442333334,519,EAST,GATSIBO,KIZIGURO,MBOGO,AGATOVU,E.P GISHYA,Primary,Ministry of education,2015
-1.616527778,30.393888889,520,EAST,GATSIBO,KABARORE,KARENGE,NYARUBUYE,E.P NYARUBUYE,Primary,Ministry of education,2015
-1.622388889,30.385166666,521,EAST,GATSIBO,KABARORE,KABARORE,KABARORE I,E.P MUSTARD SEED,Primary,Ministry of education,2015
-1.598027778,30.42725,522,EAST,GATSIBO,KABARORE,NYABIKIRI,NYABIKIRI,E.P NYABIKIRI,Primary,Ministry of education,2015
-1.615472222,30.382222222,523,EAST,GATSIBO,KABARORE,KABARORE,KABARORE II,E.P MORNING STAR BRIGHT ACADEMY,Primary,Ministry of education,2015
-1.547361111,30.244861111,524,EAST,GATSIBO,NGARAMA,NGARAMA,KIYOVU,NPEAS,Primary,Ministry of education,2015
-1.842916666,30.41225,525,EAST,GATSIBO,KIRAMURUZI,GAKONI,KUMANA,COLLEGE ADVENTISTE GAKONI,Secondary,Ministry of education,2015
-1.848555555,30.40575,526,EAST,GATSIBO,KIRAMURUZI,GAKONI,KIYOVU,UMUTARA POLYTECHNIC,Secondary,Ministry of education,2015
-1.797138889,30.408194444,527,EAST,GATSIBO,KIRAMURUZI,AKABUGA,KIRAMURUZI,ESIMI/KIRAMURUZI,Secondary,Ministry of education,2015
-1.803833333,30.418472222,528,EAST,GATSIBO,KIRAMURUZI,GAKENKE,AKAMASINE,COLLEGE APECOM,Secondary,Ministry of education,2015
-1.801472222,30.415694444,529,EAST,GATSIBO,KIRAMURUZI,GAKENKE,AKAMASINE,VTC GAKONI,Secondary,Ministry of education,2015
-1.758833333,30.285361111,530,EAST,GATSIBO,MUHURA,TABA,RUHENDA,LYCEE ST ALEXANDRE SAULI DE MUHURA,Secondary,Ministry of education,2015
-1.740583333,30.271944445,531,EAST,GATSIBO,MUHURA,TABA,TABA,G.S MUHURA,Secondary,Ministry of education,2015
-1.618027777,30.290722222,532,EAST,GATSIBO,KAGEYO,BUSETSA,NYARUBUYE,COLLEGE ADEGI-GITUZA,Secondary,Ministry of education,2015
-1.619138889,30.290083333,533,EAST,GATSIBO,KAGEYO,BUSETSA,NYARUBUYE,VTC GITUZA,Secondary,Ministry of education,2015
-1.619555556,30.29025,534,EAST,GATSIBO,KAGEYO,BUSETSA,NYARUBUYE,G.S NYARUBUYE/KAGEYO,Secondary,Ministry of education,2015
-1.766416667,30.383611111,535,EAST,GATSIBO,KIZIGURO,AGAKOMEYE,ISHANTI,E.S KIZIGURO,Secondary,Ministry of education,2015
-1.805888889,30.295611111,536,EAST,GATSIBO,GASANGE,KIGABIRO,MAYA,E.S GASANGE,Secondary,Ministry of education,2015
-1.614611111,30.219222222,537,EAST,GATSIBO,GATSIBO,NYAGAHANGA,NYAGAHANGA,EFA NYAGAHANGA,Secondary,Ministry of education,2015
-1.61075,30.220611111,538,EAST,GATSIBO,GATSIBO,NYAGAHANGA,NYAGAHANGA,G.S NYAGAHANGA,Secondary,Ministry of education,2015
-1.578027778,30.238111111,539,EAST,GATSIBO,GATSIBO,GATSIBO,GATSIBO,G.S GATSIBO,Secondary,Ministry of education,2015
-1.705277778,30.329027778,540,EAST,GATSIBO,REMERA,NYAGAKOMBE,AKABABITO,COLLEGE NYAGASOZI,Secondary,Ministry of education,2015
-1.665388889,30.408222222,541,EAST,GATSIBO,GITOKI,BUKOMANE,RWAGITIMA,E.S NYAKAYAGA,Secondary,Ministry of education,2015
-1.542583334,30.240416667,542,EAST,GATSIBO,NGARAMA,NGARAMA,KIYOVU,E.S APEM,Secondary,Ministry of education,2015
-1.520666666,30.243805556,543,EAST,GATSIBO,NGARAMA,BUGAMBA,KINYINYA,CFP BENEBIKIRA,Secondary,Ministry of education,2015
-1.534,30.242972222,544,EAST,GATSIBO,NGARAMA,NGARAMA,AMAHORO,COBANDA,Secondary,Ministry of education,2015
-1.830611111,30.381694444,545,EAST,GATSIBO,KIRAMURUZI,NYABISINDU,AKABUGA,G.S NYABISINDU,Secondary,Ministry of education,2015
-1.82525,30.415611111,546,EAST,GATSIBO,KIRAMURUZI,GAKONI,KARUHURA,G.S GAKONI CATHOLIQUE,Secondary,Ministry of education,2015
-1.746583334,30.276666667,547,EAST,GATSIBO,MUHURA,TABA,CYOGA II,G.S MUHURA TABA,Secondary,Ministry of education,2015
-1.772694444,30.297,548,EAST,GATSIBO,MUHURA,BIBARE,MARYOHE,G.S BIBARE,Secondary,Ministry of education,2015
-1.73375,30.313388888,549,EAST,GATSIBO,MUHURA,MAMFU,RUHINGA,G.S MAMFU CATHOLIQUE,Secondary,Ministry of education,2015
-1.727972222,30.421833333,550,EAST,GATSIBO,RUGARAMA,KANYANGESE,RUGARAMA,G.S RUGARAMA,Secondary,Ministry of education,2015
-1.710972223,30.369194445,551,EAST,GATSIBO,RUGARAMA,BUGARAMA,KABARE,G.S NYAGASIGA,Secondary,Ministry of education,2015
-1.684638889,30.270944445,552,EAST,GATSIBO,KAGEYO,NYAGISOZI,KAGEYO,G.S KAGEYO,Secondary,Ministry of education,2015
-1.562027778,30.241166666,553,EAST,GATSIBO,NYAGIHANGA,NYAMIRAMA,RUGARAMA,G.S KAGERA,Secondary,Ministry of education,2015
-1.522888889,30.218694444,554,EAST,GATSIBO,NYAGIHANGA,NYAGITABIRE,NYAMIKAMBA,G.S  AKAGERA,Secondary,Ministry of education,2015
-1.7805,30.435694444,555,EAST,GATSIBO,KIZIGURO,RUBONA,TUBINDI,G.S RUBONA,Secondary,Ministry of education,2015
-1.803888889,30.293833334,556,EAST,GATSIBO,GASANGE,TEME,TEME,G.S GASANGE,Secondary,Ministry of education,2015
-1.817194445,30.349083333,557,EAST,GATSIBO,MURAMBI,RWIMITERERI,KIMONDO,G.S RWIMITERERI,Secondary,Ministry of education,2015
-1.7765,30.347111111,558,EAST,GATSIBO,MURAMBI,MURAMBI,AGATAGARA/AKABUGA,G.S MURAMBI I,Secondary,Ministry of education,2015
-1.58275,30.267916667,559,EAST,GATSIBO,GATSIBO,NYABICWAMBA,RYEBAHE,G.S NYAGIHEKE,Secondary,Ministry of education,2015
-1.7365,30.338055556,560,EAST,GATSIBO,REMERA,RWARENGA,KABUYE,G.S BUGARURA,Secondary,Ministry of education,2015
-1.683472222,30.303972222,561,EAST,GATSIBO,REMERA,KIGABIRO,KIGABIRO,G.S HUMURE,Secondary,Ministry of education,2015
-1.636333333,30.339527778,562,EAST,GATSIBO,GITOKI,NYAMIRAMA,NYAMURAZA, ,Secondary,Ministry of education,2015
-1.665666667,30.408277777,563,EAST,GATSIBO,GITOKI,BUKOMANE,RWAGITIMA,G.S NYAKAYAGA,Secondary,Ministry of education,2015
-1.544388889,30.378194444,564,EAST,GATSIBO,KABARORE,SIMBWA,RUHUHA,G.S RUHUHA,Secondary,Ministry of education,2015
-1.650611111,30.432,565,EAST,GATSIBO,RWIMBOGO,NYAMATETE,UMUKEGO,G.S RWIMBOGO,Secondary,Ministry of education,2015
-1.639222223,30.464388889,566,EAST,GATSIBO,RWIMBOGO,RWIKIMIRO,RWIKIMIRO II,G.S RWIKIMIRO II,Secondary,Ministry of education,2015
-1.601916667,30.517722222,567,EAST,GATSIBO,RWIMBOGO,MUNINI,RWEZA,G.S MUNINI,Secondary,Ministry of education,2015
-1.769277778,30.383694444,568,EAST,GATSIBO,KIZIGURO,AGAKOMEYE,ISHANTI,G.S KIZIGURO,Secondary,Ministry of education,2015
-1.55925,30.322833333,569,EAST,GATSIBO,KABARORE,SIMBWA,KIBONDO I,G.S KIBONDO,Secondary,Ministry of education,2015
-1.601555555,30.379277778,570,EAST,GATSIBO,KABARORE,KABARORE,KABARORE,G.S BIHINGA,Secondary,Ministry of education,2015
-1.543638888,30.270805555,571,EAST,GATSIBO,NGARAMA,KIGASHA,KIZUNGURUKO,G.S BUSHYANGUHE,Secondary,Ministry of education,2015
-1.797972222,30.40925,572,EAST,GATSIBO,KIRAMURUZI,AKABUGA,KIRAMURUZI,E.P ALSAFUA,Pre-Primary,Ministry of education,2015
-1.439527778,30.023611112,573,NORTH,GICUMBI,KANIGA,NYARWAMBU,KABEZA,E.P MUYANGE,Primary,Ministry of education,2015
-1.653944444,30.201027778,574,NORTH,GICUMBI,RUVUNE,CYANDARO,RUGARAMA,E.P MUTI,Primary,Ministry of education,2015
-1.668777778,30.194027778,575,NORTH,GICUMBI,RUVUNE,KABARE,NYARUSANGE,E.P NYABIHU,Primary,Ministry of education,2015
-1.69225,30.204694445,576,NORTH,GICUMBI,RUVUNE,KABARE,MUREHE,E.P Bulimbi,Primary,Ministry of education,2015
-1.623027778,30.166944445,577,NORTH,GICUMBI,RUVUNE,REBERO,GATARE,GS REBERO,Primary,Ministry of education,2015
-1.622416667,29.967861111,578,NORTH,GICUMBI,MIYOVE,MIYOVE,MUKAKA,E.P MUKAKA,Primary,Ministry of education,2015
-1.763444445,30.149833333,579,NORTH,GICUMBI,RUTARE,NKOTO,BWANGAMWANDA,E.P MUREHE,Primary,Ministry of education,2015
-1.541916666,30.127638889,580,NORTH,GICUMBI,BWISIGE,NYABUSHINGITWA,NYABUSHINGITWA,E.P NDAYABANA,Primary,Ministry of education,2015
-1.545722222,30.16,581,NORTH,GICUMBI,BWISIGE,BWISIGE,NYAMUGALI,E.P NYAMUGALI,Primary,Ministry of education,2015
-1.59125,29.996916666,582,NORTH,GICUMBI,NYANKENKE,YARAMBA,CYANKARANKA,E.P CYANKARANKA,Primary,Ministry of education,2015
-1.430777777,30.076277778,583,NORTH,GICUMBI,RUSHAKI,KARURAMA,NYARUHANGA,E.P NGABIRA,Primary,Ministry of education,2015
-1.701222222,30.207472223,584,NORTH,GICUMBI,MUKO,CYAMUHINDA,RUGARAGARA,E.P RUGARAGARA,Primary,Ministry of education,2015
-1.716166667,30.235,585,NORTH,GICUMBI,MUKO,NGANGE,KABARE,E.P NGANGE,Primary,Ministry of education,2015
-1.713444444,30.197916667,586,NORTH,GICUMBI,MUKO,KIGOMA,RYARWOGA,E.P KIGOMA,Primary,Ministry of education,2015
-1.496277778,30.087277778,587,NORTH,GICUMBI,MUKARANGE,GATENGA,GATENGA,E.P MUGINA,Primary,Ministry of education,2015
-1.713888889,30.098444445,588,NORTH,GICUMBI,MUTETE,MUSENYI,KARAMBI,EP KARAMBI,Primary,Ministry of education,2015
-1.691805556,30.070777778,589,NORTH,GICUMBI,MUTETE,MUTANDI,MUTANDI,EPMUTANDI,Primary,Ministry of education,2015
-1.614972222,30.059972223,590,NORTH,GICUMBI,BYUMBA,NYARUTARAMA,NYANDE,NYANDE PR.SCHOOL,Primary,Ministry of education,2015
-1.581833333,30.072083334,591,NORTH,GICUMBI,BYUMBA,GACURABWENGE,RUYAGA,GACURABWENGE PR.SCHOOL,Primary,Ministry of education,2015
-1.458472223,30.011472223,592,NORTH,GICUMBI,CYUMBA,NYAKABUNGO, ,"E.P.MUKONO
 CATHOLIQUE",Primary,Ministry of education,2015
-1.479694444,30.009888889,593,NORTH,GICUMBI,CYUMBA,NYAKABUNGO, ,E.P.MUKONO EAR,Primary,Ministry of education,2015
-1.483555556,30.027666667,594,NORTH,GICUMBI,CYUMBA,NYARUKA, ,E.P.MUKORE,Primary,Ministry of education,2015
-1.751222222,30.208305556,595,NORTH,GICUMBI,GITI,GATOBOTOBO,KAGAHUMBI,GATOBOTOBO PR.SCHOOL,Primary,Ministry of education,2015
-1.599583333,30.07675,596,NORTH,GICUMBI,KAGEYO,GIHEMBE,KARIHIRA,E P GIHEMBE,Primary,Ministry of education,2015
-1.530694444,29.9675,597,NORTH,GICUMBI,MANYAGIRO,REMERA,BUSHINGA,E.P BUSHINGA,Primary,Ministry of education,2015
-1.550416667,29.986333334,598,NORTH,GICUMBI,MANYAGIRO,NYIRAGIFUMBA,Murambo,E.P MAFUREBO,Primary,Ministry of education,2015
-1.488,29.986416666,599,NORTH,GICUMBI,RUBAYA,NYAMIYAGA,KABEZA,E.P.KABEZA,Primary,Ministry of education,2015
-1.625638889,30.105916667,600,NORTH,GICUMBI,RUKOMO,KINYAMA,MESHERO,E.P.MESHERO,Primary,Ministry of education,2015
-1.626111111,30.105611111,601,NORTH,GICUMBI,RUKOMO,KINYAMA,MESHERO,E.P. MESHERO,Primary,Ministry of education,2015
-1.584583333,30.104416666,602,NORTH,GICUMBI,RUKOMO,MABARE,KANYIRAMANA,E.P MABARE,Primary,Ministry of education,2015
-1.58,30.135111111,603,NORTH,GICUMBI,RUKOMO,CYEYA,BIRAMBO,E.P.CYEYA,Primary,Ministry of education,2015
-1.594361111,30.091888889,604,NORTH,GICUMBI,RUKOMO,MABARE,RYANDINDA,E.P.RUMARANGOGA,Primary,Ministry of education,2015
-1.514083334,30.072722222,605,NORTH,GICUMBI,SHANGASHA,BUSHARA,BUSHARA,E.P.BUSHARA,Primary,Ministry of education,2015
-1.727694444,30.089583333,606,NORTH,RULINDO,BUYOGA,GAHORORO,GIPFUNDO,E.P NYABISIGA,Primary,Ministry of education,2015
-1.777611111,30.175944445,607,NORTH,GICUMBI,RWAMIKO,NYAGAHINGA,NTAREMBA,E.P NYANZA,Primary,Ministry of education,2015
-1.60025,29.962583333,608,NORTH,GICUMBI,MIYOVE,MUBUGA,KIVUMU,E.P MUBUGA,Primary,Ministry of education,2015
-1.703166666,30.134722222,609,NORTH,GICUMBI,NYAMIYAGA,MATABA,RUYAGA,E.P RUNANGA,Primary,Ministry of education,2015
-1.614833334,29.994527778,610,NORTH,GICUMBI,NYANKENKE,RUSASA,RUHOHO,E.P RUSASA,Primary,Ministry of education,2015
-1.520444444,30.105222222,611,NORTH,GICUMBI,RUSHAKI,GITEGA,KARAMBI,E.P KARAMBI,Primary,Ministry of education,2015
-1.505305556,30.113055556,612,NORTH,GICUMBI,RUSHAKI,GITEGA,KARAMBO,E.P KARAMBO,Primary,Ministry of education,2015
-1.458694444,30.093472223,613,NORTH,GICUMBI,RUSHAKI,KAMUTORA,NKAMBA,E.P RUSHAKI,Primary,Ministry of education,2015
-1.838638889,30.245888889,614,NORTH,GICUMBI,BUKURE,KIVUMU,KARAMBO,SANCTA MARIA KARAMBO,Pre-Primary,Ministry of education,2015
-1.609694444,30.086333333,615,NORTH,GICUMBI,KAGEYO,NYAMIYAGA,GATARE,E P SOS BYUMBA,Primary,Ministry of education,2015
-1.478027778,30.047638889,616,NORTH,GICUMBI,KANIGA,BUGOMBA,KAJEVUBA,E.S MULINDI,Secondary,Ministry of education,2015
-1.623583334,30.166333334,617,NORTH,GICUMBI,RUVUNE,REBERO,GATARE,COLLEGE de Rebero,Secondary,Ministry of education,2015
-1.629611111,30.171972222,618,NORTH,GICUMBI,RUVUNE,REBERO,RWAMIKO,G.S REBERO,Secondary,Ministry of education,2015
-1.798055556,30.176138889,619,NORTH,GICUMBI,RWAMIKO,NYAGAHINGA,KIGAGA,RWESERO VTC,Secondary,Ministry of education,2015
-1.726833333,30.178333334,620,NORTH,GICUMBI,RUTARE,GATWARO,KABIRA,EP GATWARO,Secondary,Ministry of education,2015
-1.569416667,30.155444444,621,NORTH,GICUMBI,BWISIGE,BWISIGE,KABUYE,E.S BWISIGE,Secondary,Ministry of education,2015
-1.478194444,30.107666666,622,NORTH,GICUMBI,RUSHAKI,KAMUTORA,KAMUTORA,E.S KAMUTORA,Secondary,Ministry of education,2015
-1.455083334,30.093277777,623,NORTH,GICUMBI,RUSHAKI,KAMUTORA,NKAMBA,College don Bosco de Rushaki,Secondary,Ministry of education,2015
-1.698777778,30.234527778,624,NORTH,GICUMBI,MUKO,REBERO,RYAGASHAKA,COLLEGE SANTO ANTONIO MARIA ZACCARIA,Secondary,Ministry of education,2015
-1.751416666,30.122416667,625,NORTH,GICUMBI,MUTETE,GASEKE,NGANDO,GS NGANDO,Secondary,Ministry of education,2015
-1.704555555,30.098194444,626,NORTH,GICUMBI,MUTETE,MUSENYI,MUHORORO,GS MUHOROROR,Secondary,Ministry of education,2015
-1.801833333,30.179166667,627,NORTH,GICUMBI,BUKURE,RWESERO,GICACA,PETIT SEMINAIRE RWESERO,Secondary,Ministry of education,2015
-1.787777778,30.222944445,628,NORTH,GICUMBI,BUKURE,KARENGE,NYARUTOVU,E.S.BUKURE,Secondary,Ministry of education,2015
-1.571111111,30.048555556,629,NORTH,GICUMBI,BYUMBA,NYAMABUYE,MUGOMERO,G.S N.D BON CONSEIL,Secondary,Ministry of education,2015
-1.572888889,30.052694444,630,NORTH,GICUMBI,BYUMBA,NYAMABUYE,NYIRAGASURUBA,G.S DE LASALLE,Secondary,Ministry of education,2015
-1.575305555,30.066722222,631,NORTH,GICUMBI,BYUMBA,GISUNA,GISUNA,G.S APAPEB,Secondary,Ministry of education,2015
-1.586166667,30.058388889,632,NORTH,GICUMBI,BYUMBA,GACURABWENGE,RUBYINIRO,KIBALI VTC,Secondary,Ministry of education,2015
-1.480333333,30.009388889,633,NORTH,GICUMBI,CYUMBA,NYAKABUNGO, ,E.S.MUKONO,Secondary,Ministry of education,2015
-1.619083333,30.089944445,634,NORTH,GICUMBI,KAGEYO,NYAMIYAGA,GATARE, ,Secondary,Ministry of education,2015
-1.606333333,30.083194445,635,NORTH,GICUMBI,KAGEYO,GIHEMBE,GITABA, ,Secondary,Ministry of education,2015
-1.601055556,30.076805555,636,NORTH,GICUMBI,KAGEYO,GIHEMBE,KARIHIRA, ,Secondary,Ministry of education,2015
-1.524222222,29.986722222,637,NORTH,GICUMBI,MANYAGIRO,RUSEKERA,REBERO,G.S KAGOROGORO,Secondary,Ministry of education,2015
-1.523638889,30.012527778,638,NORTH,GICUMBI,MANYAGIRO,KABUGA,KIGARAMA,G.S MANYAGIRO,Secondary,Ministry of education,2015
-1.658388889,30.130305555,639,NORTH,GICUMBI,RUKOMO,CYURU,NYAMUTEZI,E.S.CYURU,Secondary,Ministry of education,2015
-1.434722222,30.033472222,640,NORTH,GICUMBI,KANIGA,NYARWAMBU,KINYOGO,G.S KANIGA,Secondary,Ministry of education,2015
-1.452444444,30.04625,641,NORTH,GICUMBI,KANIGA,BUGOMBA,GATARE,G.S BUGOMBA,Secondary,Ministry of education,2015
-1.412444444,30.079222222,642,NORTH,GICUMBI,KANIGA,GATOMA,KAMABARE,G.S KIZINGA,Secondary,Ministry of education,2015
-1.604277778,30.167916667,643,NORTH,GICUMBI,RUVUNE,GASHIRIRA,RUGERERO,G.S NYARURAMA,Secondary,Ministry of education,2015
-1.655111111,30.178194444,644,NORTH,GICUMBI,RUVUNE,RUHONDO,GATOKI,G.S RUHONDO,Secondary,Ministry of education,2015
-1.7775,30.134277778,645,NORTH,GICUMBI,RUTARE,NKOTO,NYAGATOMA,G.S NYAGATOMA,Secondary,Ministry of education,2015
-1.731694444,30.170861111,646,NORTH,GICUMBI,RUTARE,GASHARU,KABUSUNZU,G.S KABIRA,Secondary,Ministry of education,2015
-1.58025,30.154638889,647,NORTH,GICUMBI,BWISIGE,BWISIGE,NYARUBUYE,G.S BWISIGE,Secondary,Ministry of education,2015
-1.546888889,30.145444444,648,NORTH,GICUMBI,BWISIGE,GIHUKE,KUMUNINI,G.S GIHUKE,Secondary,Ministry of education,2015
-1.572166666,29.997972222,649,NORTH,GICUMBI,NYANKENKE,YARAMBA,KINISHYA,G.S KINISHYA,Secondary,Ministry of education,2015
-1.593083333,30.01175,650,NORTH,GICUMBI,NYANKENKE,KIGOGO,KIYOVU,G.S KIGOGO,Secondary,Ministry of education,2015
-1.499666666,30.127,651,NORTH,GICUMBI,RUSHAKI,GITEGA,GITEGA,G.S GITEGA,Secondary,Ministry of education,2015
-1.697805555,30.229388889,652,NORTH,GICUMBI,MUKO,REBERO,KARUNDI,G.S MUKO,Secondary,Ministry of education,2015
-1.730638889,30.212722222,653,NORTH,GICUMBI,MUKO,MWENDO,KAGOGO,G.S MWENDO,Secondary,Ministry of education,2015
-1.507277778,30.041916667,654,NORTH,GICUMBI,MUKARANGE,RUGERERO,KAGARAMA,G.S MUKARANGE,Secondary,Ministry of education,2015
-1.490277778,30.067277778,655,NORTH,GICUMBI,MUKARANGE,RUSAMBYA,RUSAMBYA,G.S NYAGAKIZI,Secondary,Ministry of education,2015
-1.463138889,30.059555555,656,NORTH,GICUMBI,MUKARANGE,KIRUHURA,KIRUHURA,G.S KIRUHURA,Secondary,Ministry of education,2015
-1.76275,30.124305555,657,NORTH,GICUMBI,MUTETE,GASEKE,IRASANIRO,GS GASEKE,Secondary,Ministry of education,2015
-1.793333333,30.217166667,658,NORTH,GICUMBI,BUKURE,KARENGE,KAGARAMA,G.S.BUKURE,Primary,Ministry of education,2015
-1.816194444,30.210527778,659,NORTH,GICUMBI,BUKURE,RWESESRO,KARAGARI,E.P.KARAGARI,Primary,Ministry of education,2015
-1.817083333,30.230194445,660,NORTH,GICUMBI,BUKURE,KIGABIRO,RUGOGWE,G.S.KARUSHYA,Secondary,Ministry of education,2015
-1.550694444,30.041972222,661,NORTH,GICUMBI,BYUMBA,KIBALI,RUGARAMA,G.S KIBALI,Primary,Ministry of education,2015
-1.586638889,30.058111111,662,NORTH,GICUMBI,BYUMBA,GACURABWENGE,RUBYINIRO,G.S BYUMBA EAR,Primary,Ministry of education,2015
-1.580888889,30.064722222,663,NORTH,GICUMBI,BYUMBA,GACURABWENGE,RUBYINIRO,G.S BYUMBA INYANGE,Secondary,Ministry of education,2015
-1.572111112,30.050555556,664,NORTH,GICUMBI,BYUMBA,NYAMABUYE,NYIRAGASURUBA,ACADEMIE DE LASALLE,Secondary,Ministry of education,2015
-1.573888889,30.054888889,665,NORTH,GICUMBI,BYUMBA,NYAMABUYE,NYIRAGASURUBA,G.S BYUMBA CATHOLIQUE,Primary,Ministry of education,2015
-1.440055556,30.017833333,666,NORTH,GICUMBI,CYUMBA,RWANKONJO,RUKIZI,G.S.RUKIZI,Primary,Ministry of education,2015
-1.498222222,30.018611111,667,NORTH,GICUMBI,CYUMBA,MUHAMBO, ,G.S.CYUMBA,Secondary,Ministry of education,2015
-1.766027777,30.229361111,668,NORTH,GICUMBI,GITI,GATOBOTOBO,KABABITO,G.S GITI,Secondary,Ministry of education,2015
-1.753333334,30.251666666,669,NORTH,GICUMBI,GITI,MUREHE,CYAMABANO,G.S KAGOGO,Primary,Ministry of education,2015
-1.802083333,30.26025,670,NORTH,GICUMBI,GITI,TANDA,TANDA,G.S TANDA,Primary,Ministry of education,2015
-1.462388889,29.998361111,671,NORTH,GICUMBI,RUBAYA,MUGURAMO,CENTRE DE RUBAYA,G.S.RUBAYA,Secondary,Ministry of education,2015
-1.586416667,30.100638889,672,NORTH,GICUMBI,RUKOMO,MABARE,KANYIRAMANA,G.S.MAARE,Primary,Ministry of education,2015
-1.645555556,30.136888889,673,NORTH,GICUMBI,RUKOMO,MUNYINYA,MUNYINYA,G.S.RUKOMO,Primary,Ministry of education,2015
-1.606083334,30.122555556,674,NORTH,GICUMBI,RUKOMO,GISIZA,NYAMABUYE,G.S.BISIKA,Secondary,Ministry of education,2015
-1.477,30.047277778,675,NORTH,GICUMBI,KANIGA,BUGOMBA,KAJEVUBA,G.S MULINDI,Secondary,Ministry of education,2015
-1.798555556,30.1765,676,NORTH,GICUMBI,RWAMIKO,NYAGAHINGA,KIGAGA,G.S RWESERO,Secondary,Ministry of education,2015
-1.7615,30.207638889,677,NORTH,GICUMBI,RWAMIKO,CYERU,KALIKA,GITOMA Primary School,Secondary,Ministry of education,2015
-1.758416666,30.185583334,678,NORTH,GICUMBI,RWAMIKO, ,KARANGARA,G.S RWAMIKO,Secondary,Ministry of education,2015
-1.609333333,29.97275,679,NORTH,GICUMBI,MIYOVE,MUBUGA,KAGOTE,G.S MIYOVE,Secondary,Ministry of education,2015
-1.635555555,30.005416666,680,NORTH,GICUMBI,MIYOVE,GAKENKE,MUSEKE,G.S RUMULI,Secondary,Ministry of education,2015
-1.668166666,30.133694444,681,NORTH,GICUMBI,NYAMIYAGA,KIZIBA,RWINGWE,G.S NYINAWIMANA,Secondary,Ministry of education,2015
-1.669611111,30.163611111,682,NORTH,GICUMBI,NYAMIYAGA,KABUGA,KABEZA,G.S KAGAMBA,Secondary,Ministry of education,2015
-1.678305555,30.102166667,683,NORTH,GICUMBI,NYAMIYAGA,GAHUMURIZA,MAJYAMBERE,G.S MUGINA,Secondary,Ministry of education,2015
-1.586277778,30.030444445,684,NORTH,GICUMBI,NYANKENKE,RWAGIHURA,KAGOGO,G.S St. Bede RWAGIHURA,Secondary,Ministry of education,2015
-1.456944445,30.088111111,685,NORTH,GICUMBI,RUSHAKI,KARURAMA,RWARANDA,G.S MUYUMBU,Secondary,Ministry of education,2015
-1.653805556,30.092777778,686,NORTH,GICUMBI,KAGEYO,KABUGA,GICUMBI,G S GICUMBI,Secondary,Ministry of education,2015
-1.628333333,30.087333333,687,NORTH,GICUMBI,KAGEYO,MUHONDO,KAMANYUNDO,G S MUHONDO,Secondary,Ministry of education,2015
-1.606055556,30.082611111,688,NORTH,GICUMBI,KAGEYO,GIHEMBE,GITABA,G S KAGEYO,Secondary,Ministry of education,2015
-1.549694444,30.088,689,NORTH,GICUMBI,SHANGASHA,NYABISHAMBI, ,G.S.NYABISHAMBI,Primary,Ministry of education,2015
-1.529055556,30.070666666,690,NORTH,GICUMBI,SHANGASHA,SHANGASHA,RYAMATEBURA,G.S.SHANGASHA,Primary,Ministry of education,2015
-1.702611111,30.171194444,691,NORTH,GICUMBI,RUTARE,KIGABIRO,KIVURUGA,G.S KIRWA,Secondary,Ministry of education,2015
-1.685916666,30.081305555,692,NORTH,GICUMBI,MUTETE,KABEZA,NYAGASOZI,GS NYAGASOZI,Secondary,Ministry of education,2015
-2.732583334,29.855583333,693,SOUTH,GISAGARA,MUKINDO,NYABISAGARA,MUTONDO,E.P.MAGI,Primary,Ministry of education,2015
-2.7145,29.875388889,694,SOUTH,GISAGARA,MUKINDO,RUNYINYA,AGASHARU/AKAKARINDA,E.P RUNYINYA,Primary,Ministry of education,2015
-2.760694444,29.833,695,SOUTH,GISAGARA,MUKINDO,MUKINDO,MKINDO,E.P.MUKIZA,Primary,Ministry of education,2015
-2.532222222,29.790055556,696,SOUTH,GISAGARA,SAVE,SHYANDA,TABA,SHYANDA PRIMARY SCHOOL,Primary,Ministry of education,2015
-2.57525,29.785111111,697,SOUTH,GISAGARA,SAVE,GATOKI,GIKWA,MUNAZI PRIMARY SCHOOL,Primary,Ministry of education,2015
-2.549166667,29.772388889,698,SOUTH,GISAGARA,SAVE,GATOKI,NYALIGINA,SAVE A PRIMARY SCHOOL,Primary,Ministry of education,2015
-2.546111112,29.772194444,699,SOUTH,GISAGARA,SAVE,GATOKI,nyarigina,SAVE B PRIMARY SCHOOL,Primary,Ministry of education,2015
-2.577638889,29.769527778,700,SOUTH,GISAGARA,SAVE,RWANZA,BWINYAMBO,GAHORA PRIMARY SCHOOL,Primary,Ministry of education,2015
-2.559111111,29.819305555,701,SOUTH,GISAGARA,SAVE,ZIVU,RYAMURONGO,TAMBA PRIMARY SCHOOL,Primary,Ministry of education,2015
-2.542305556,29.849777778,702,SOUTH,GISAGARA,MUSHA,BUKINANYANA,MUNYEGERA,MUNYEGERA PRIMARY SHOOL,Primary,Ministry of education,2015
-2.516472222,29.854833333,703,SOUTH,GISAGARA,MUSHA,GATOVU,KIGARAMA,JURWE PRIMARY SCHOOL,Primary,Ministry of education,2015
-2.601972223,29.834361111,704,SOUTH,GISAGARA,NDORA,GISAGARA,GISAGARTA,E.P.GISAGARA,Primary,Ministry of education,2015
-2.604,29.832527777,705,SOUTH,GISAGARA,NDORA,GISAGARA,GISAGARA,E.P.GISAGARA,Primary,Ministry of education,2015
-2.581555555,29.847166667,706,SOUTH,GISAGARA,NDORA,MUKANDE,NYARUNYINYA,E.P.NYARUNYINYA,Primary,Ministry of education,2015
-2.60275,29.789611111,707,SOUTH,GISAGARA,NDORA,BWEYA,SABUDARI,E.P.GASAVE,Primary,Ministry of education,2015
-2.621888889,29.851083334,708,SOUTH,GISAGARA,NDORA,DAHWE,GITWA,E.P.DAHWE,Primary,Ministry of education,2015
-2.480305555,29.943444445,709,SOUTH,GISAGARA,MAMBA,KABUMBWE,KABUGA,E.P.KABUMBWE,Primary,Ministry of education,2015
-2.440583333,29.942944445,710,SOUTH,GISAGARA,MAMBA,GAKOMA,KIZENGA,E.P.KIZENGA,Primary,Ministry of education,2015
-2.482805556,29.917111111,711,SOUTH,GISAGARA,MAMBA,MAMBA,GAKOMA,E.P.MAMBA,Primary,Ministry of education,2015
-2.497083333,29.90575,712,SOUTH,GISAGARA,MAMBA,RAMBA,KIGAMGAZI,E.P.MWENDO,Primary,Ministry of education,2015
-2.478972223,29.831,713,SOUTH,GISAGARA,GIKONKO,CYIRI,SANZU,EP SANZU,Primary,Ministry of education,2015
-2.543888889,29.881722222,714,SOUTH,GISAGARA,GISHUBI,NYERANZI,MUDUHA,E.P.MUDUHA,Primary,Ministry of education,2015
-2.567388889,29.876027778,715,SOUTH,GISAGARA,GISHUBI,NYERANZI,KAGOMA,E.P.KAGOMA,Primary,Ministry of education,2015
-2.618777778,29.92075,716,SOUTH,GISAGARA,GISHUBI,NYABITARO,RWINKWAVU,E.P.NYABITARE,Primary,Ministry of education,2015
-2.699083333,29.751777777,717,SOUTH,GISAGARA,KANSI,AKABOTI,RUGARAMA,E.P.KANSI,Primary,Ministry of education,2015
-2.669555556,29.811194444,718,SOUTH,GISAGARA,KANSI,UMUNINI,NYANGE,E.P.NYANGE,Primary,Ministry of education,2015
-2.679361111,29.786777777,719,SOUTH,GISAGARA,KANSI,BWIZA,NYAKIBUNGO,E.P.NYARUHENGERI,Primary,Ministry of education,2015
-2.699055555,29.784611111,720,SOUTH,GISAGARA,KANSI,AKABOTI,AGACYAMU,E.P.LINGANWE,Primary,Ministry of education,2015
-2.708361111,29.853,721,SOUTH,GISAGARA,MUGOMBWA,KIBAYI,LINDA,E.P.LINDAS,Primary,Ministry of education,2015
-2.734333334,29.878083333,722,SOUTH,GISAGARA,MUGOMBWA,MUKOMACARA, ,E.P.MUKOMACARA,Primary,Ministry of education,2015
-2.689888889,29.834111111,723,SOUTH,GISAGARA,MUGOMBWA,BAZIRU,IGITUNGWA,E.P.NYABINYENGA,Primary,Ministry of education,2015
-2.741083333,29.738166667,724,SOUTH,GISAGARA,KIGEMBE,GAHABWA,AGAHEKE,E.P.KIGEMBE,Primary,Ministry of education,2015
-2.751305556,29.76725,725,SOUTH,GISAGARA,KIGEMBE,RUBONA,AKADOGO,E.P.RUBONA,Primary,Ministry of education,2015
-2.631611111,29.780833333,726,SOUTH,GISAGARA,KIBILIZI,MUYIRA,IMPINGA,MUYIRA PRIMARY SCHOOL,Primary,Ministry of education,2015
-2.640055556,29.820305555,727,SOUTH,GISAGARA,KIBILIZI,URTURO,MPINGA,KARAMA PRIMARY SCHOOL,Primary,Ministry of education,2015
-2.619805556,29.87825,728,SOUTH,GISAGARA,MUGANZA,MUGANZA,CYANAMO,E.P.MUGANZA,Primary,Ministry of education,2015
-2.664388889,29.897583333,729,SOUTH,GISAGARA,MUGANZA,RWAMIKO,KIYOGORO,EP KIBANGU,Primary,Ministry of education,2015
-2.621305556,29.8995,730,SOUTH,GISAGARA,MUGANZA,RWAMIKO,BUSERUKA,E.P.RWAMIKO,Primary,Ministry of education,2015
-2.649888889,29.865222223,731,SOUTH,GISAGARA,MUGANZA,CYUMBA,CYIZA,EAR BYIZA,Primary,Ministry of education,2015
-2.500138889,29.878194445,732,SOUTH,GISAGARA,MUSHA,BUKINANYANA,BWATANO,G.S.RWATANO,Primary,Ministry of education,2015
-2.480555555,29.869083333,733,SOUTH,GISAGARA,GIKONKO,GIKONKO,KARUBONDO,GIKONKO EAR,Primary,Ministry of education,2015
-2.473888889,29.889333333,734,SOUTH,GISAGARA,GIKONKO,MBOGO,NYAKABUYE,MBAGO,Primary,Ministry of education,2015
-2.768194444,29.730472222,735,SOUTH,GISAGARA,NYANZA,HIGIRO,AGATARE,HIGIRO PRIMARY SCHOOL,Primary,Ministry of education,2015
-2.783666667,29.746527778,736,SOUTH,GISAGARA,NYANZA,UMUBANGA,AKIMANA,RUHORORO PRIMARY SCHOOL,Primary,Ministry of education,2015
-2.786777777,29.733722222,737,SOUTH,GISAGARA,NYANZA,NYARUTEJA,AKAMERWE,RUSONGATI PRIMARY,Primary,Ministry of education,2015
-2.732527777,29.8585,738,SOUTH,GISAGARA,MUKINDO,NYABISAGARA,MAKWAZA,E.S.MAGI,Secondary,Ministry of education,2015
-2.545666667,29.773333333,739,SOUTH,GISAGARA,SAVE,GATOKI,GASHUBI,COLLEGE IMMACULEE DE CONCEPTION,Secondary,Ministry of education,2015
-2.550722222,29.773055555,740,SOUTH,GISAGARA,SAVE,GATOKI,NYALIGINA,TTC/SAVE,Secondary,Ministry of education,2015
-2.544416666,29.771166667,741,SOUTH,GISAGARA,SAVE,GATOKI,KAVUMU,COLLEGE TECHNIQUE SAINT KIZITO SAVE,Secondary,Ministry of education,2015
-2.541583333,29.771194444,742,SOUTH,GISAGARA,SAVE,GATOKI,KAVUMU,GROUP SCOLAIRE SAINTE BERNADETTE SAVE,Secondary,Ministry of education,2015
-2.54725,29.775138889,743,SOUTH,GISAGARA,SAVE,GATOKI,NYALIGINA,SAVE SECONDARY SCHOOL,Secondary,Ministry of education,2015
-2.603472222,29.831638888,744,SOUTH,GISAGARA,NDORA,GISAGARA,GISAGARA,G.S.SAINT PHILIPE NERI,Secondary,Ministry of education,2015
-2.481888889,29.918027777,745,SOUTH,GISAGARA,MAMBA,MAMBA,GAKOMA,E.S.GAKOMA,Secondary,Ministry of education,2015
-2.483555556,29.864222222,746,SOUTH,GISAGARA,GIKONKO,GIKONKO,KARUBUNDO,E.S.GIKONKO,Secondary,Ministry of education,2015
-2.483833334,29.85675,747,SOUTH,GISAGARA,GIKONKO,GIKONKO,KARUBUNDO,G.S.GIKONKO,Secondary,Ministry of education,2015
-2.589138889,29.87,748,SOUTH,GISAGARA,GISHUBI,GABIRO,RWEZA,G.S.GISHUBI,Secondary,Ministry of education,2015
-2.585277778,29.904361111,749,SOUTH,GISAGARA,GISHUBI,NYAKIBUNGO,GICACA,G.S.NYAGAHURU II,Secondary,Ministry of education,2015
-2.697222222,29.753583333,750,SOUTH,GISAGARA,KANSI,AKABOTI,RUGARAMA,COLLEGE SAINT JOSEPH KANSI,Primary,Ministry of education,2015
-2.698611111,29.753666667,751,SOUTH,GISAGARA,KANSI,AKABOTI,AGATARE,G.S.SAINT FRANCOIS D'ASSISE,Secondary,Ministry of education,2015
-2.686666666,29.771583333,752,SOUTH,GISAGARA,KANSI,AKABOTI,AKAYENZI,E.S.KANSI,Secondary,Ministry of education,2015
-2.702083334,29.748833333,753,SOUTH,GISAGARA,KANSI,AKABOTI,AGATARE,COLLEGE SAINT BERNADETTE DE KANSI,Secondary,Ministry of education,2015
-2.732222222,29.7315,754,SOUTH,GISAGARA,KIGEMBE,GAHABWA,URUHUHA,KIGEMBE V.T.C,Secondary,Ministry of education,2015
-2.754944444,29.74375,755,SOUTH,GISAGARA,KIGEMBE,NYABIKENKE,UMURAMGARA,E.S.KIGEMBE,Secondary,Ministry of education,2015
-2.781027778,29.736333334,756,SOUTH,GISAGARA,NYANZA,HIGIRO,AKABAKENKE,HIGIRO SECONDARY SCHOOL,Secondary,Ministry of education,2015
-2.61975,29.901638889,757,SOUTH,GISAGARA,MUGANZA,RWAMIKO,BUSERUKA,E.S RWAMIKO,Secondary,Ministry of education,2015
-2.64875,29.859944444,758,SOUTH,GISAGARA,MUGANZA,REMERA,TABA,ES MUGANZA,Secondary,Ministry of education,2015
-2.744583333,29.841972222,759,SOUTH,GISAGARA,MUKINDO,GITEGA,AGATUNDA,G.S.JOMA,Secondary,Ministry of education,2015
-2.539888889,29.808166666,760,SOUTH,GISAGARA,MUSHA,KIGARAMA,BUGAGIRO,G.S.ZUVU,Secondary,Ministry of education,2015
-2.515416667,29.894694444,761,SOUTH,GISAGARA,MAMBA,MUYAGA,KABEZA,G.S.KABEZA,Secondary,Ministry of education,2015
-2.508944444,29.819611111,762,SOUTH,GISAGARA,GIKONKO,GASAGARA,GASAGARA,G.S.GASAGARA,Secondary,Ministry of education,2015
-2.733305556,29.793333333,763,SOUTH,GISAGARA,KANSI,SEBUSARO,GIKORE,G.S.GIKORE,Secondary,Ministry of education,2015
-2.701944444,29.749638888,764,SOUTH,GISAGARA,KANSI,AKABOTI,AGATARE,G.S.KANSI B,Secondary,Ministry of education,2015
-2.718111111,29.838916666,765,SOUTH,GISAGARA,MUGOMBWA,KIVU,MUSHONGI,G.S.MUSHONGI,Secondary,Ministry of education,2015
-2.677361111,29.860166667,766,SOUTH,GISAGARA,MUGOMBWA,MUGOMBWA,IMPINGA,G.S.MUGOMBWA,Secondary,Ministry of education,2015
-2.686472222,29.880527778,767,SOUTH,GISAGARA,MUGANZA,MUGANZA,SABA,G.S.SAGA,Secondary,Ministry of education,2015
-2.661444444,29.874416666,768,SOUTH,GISAGARA,MUGANZA,CYUMBA,RWIMISAMBI,G.S.CYUMBA,Secondary,Ministry of education,2015
-2.587611111,29.821638889,769,SOUTH,GISAGARA,NDORA,CYAMUKUZA,SAGAHUNGU,G.S.CYAMUKUZA,Secondary,Ministry of education,2015
-2.615916667,29.810861111,770,SOUTH,GISAGARA,NDORA,GISAGARA,RUGARA,G.S.NDORA,Secondary,Ministry of education,2015
-2.478972222,29.830888889,771,SOUTH,GISAGARA,GIKONKO,GIKONKO,CYRLI,GS CURUSI,Secondary,Ministry of education,2015
-2.595944445,29.764083334,772,SOUTH,GISAGARA,KIBILIZI,TABA,DUWALI,G.S.KINTEKO,Secondary,Ministry of education,2015
-2.652333333,29.781388889,773,SOUTH,GISAGARA,KIBILIZI,TORERO,KIBILIZI,G.S.KIBILIZI,Secondary,Ministry of education,2015
-2.59725,29.735222222,774,SOUTH,HUYE,NGOMA,NGOMA,NGOMA I,CJSM,Primary,Ministry of education,2015
-2.504611111,29.708222222,775,SOUTH,HUYE,SIMBI,KABUSANZA,NDAGO,ECOLE PRIMAIRE NTOBWE,Primary,Ministry of education,2015
-2.620111111,29.617583333,776,SOUTH,HUYE,KARAMA,BUHORO,MATABA,BUHORO PRIMARY SCHOOL,Primary,Ministry of education,2015
-2.589055556,29.672333333,777,SOUTH,HUYE,KARAMA,KIBINGO,AGASHARU,KIBINGO PRIMARY SCHOOL,Primary,Ministry of education,2015
-2.64075,29.646805555,778,SOUTH,HUYE,KARAMA,BUNAZI,AKAREHE,EP BUNAZI,Primary,Ministry of education,2015
-2.543638889,29.761833334,779,SOUTH,HUYE,MBAZI,MWULIRE,MURAMBI,EP KARAMA,Primary,Ministry of education,2015
-2.57175,29.736472222,780,SOUTH,HUYE,MBAZI,KABUGA,MPINGA,ECOLE PRIMAIRE KABUGA,Primary,Ministry of education,2015
-2.610777778,29.689833333,781,SOUTH,HUYE,GISHAMVU,RYAKIBOGO,KIDUHA,ECOLE PRIMAIRE KIDUHA,Primary,Ministry of education,2015
-2.66425,29.689888889,782,SOUTH,HUYE,GISHAMVU,NYUMBA,GASYANKINGI,ECOLE PRIMAIRE NYUMBA,Primary,Ministry of education,2015
-2.641027778,29.709638889,783,SOUTH,HUYE,GISHAMVU,NYAKIBANDA,KAMABUYE,ECOLE PRIMAIRE NYAKIBANDA,Primary,Ministry of education,2015
-2.478972222,29.798277778,784,SOUTH,HUYE,RUSATIRA,KIMUNA,NYABUSUNZU,EP KIMUNA,Primary,Ministry of education,2015
-2.500388889,29.788472222,785,SOUTH,HUYE,RUSATIRA,MUGOGWE,MUBUGA,EP MUGOGWE,Primary,Ministry of education,2015
-2.454694445,29.779694445,786,SOUTH,HUYE,RUSATIRA,KIMIREHE,NYARUTOVU,EP KATO,Primary,Ministry of education,2015
-2.4585,29.757444444,787,SOUTH,HUYE,RUSATIRA,KIRUHURA,MPINGA,EP KIRUHURA,Primary,Ministry of education,2015
-2.611638889,29.725138889,788,SOUTH,HUYE,TUMBA,MPARE,KIGARAMA,ECOLLE PRIMAIRE MPARE,Primary,Ministry of education,2015
-2.491916667,29.750055556,789,SOUTH,HUYE,RUHASHYA,MARA,GITWA,EP MARA,Primary,Ministry of education,2015
-2.520166667,29.751722222,790,SOUTH,HUYE,RUHASHYA,KARAMBI,RUKUBIRO,EP RUKUBIRO,Primary,Ministry of education,2015
-2.551722222,29.739222222,791,SOUTH,HUYE,MBAZI,MUTUNDA,RURYANGO,ECOLE MUTUNDA EAR,Pre-Primary,Ministry of education,2015
-2.626305555,29.755722222,792,SOUTH,HUYE,TUMBA,CYARWA,TABA, ,Pre-Primary,Ministry of education,2015
-2.592944444,29.7505,793,SOUTH,HUYE,NGOMA,BUTARE,TABA,ECOLE INTERNATIONNALE DE BUTARE,Primary,Ministry of education,2015
-2.599111111,29.732777778,794,SOUTH,HUYE,NGOMA,NGOMA,NGOMA I,EP NGOMA ADVENTIST,Primary,Ministry of education,2015
-2.594361111,29.753944444,795,SOUTH,HUYE,NGOMA,BUTARE,AKABUYE,LE PIGEONNIER SCHOOL,Primary,Ministry of education,2015
-2.597111112,29.736194444,796,SOUTH,HUYE,NGOMA,BUTARE,KARUBANDA,NEW VISION SCHOOL,Primary,Ministry of education,2015
-2.599833333,29.731,797,SOUTH,HUYE,NGOMA,NGOMA,NGOMA I,ECOLE PRIMAIRE NGOMA,Primary,Ministry of education,2015
-2.521138889,29.678805555,798,SOUTH,HUYE,SIMBI,CYENDAJURU,RUGARAMA,EP CYENDAJURU,Primary,Ministry of education,2015
-2.482111112,29.674055555,799,SOUTH,HUYE,SIMBI,NYANGAZI,KAREBERO,EP NYANGAZI,Primary,Ministry of education,2015
-2.536694444,29.684916666,800,SOUTH,HUYE,MBAZI,TARE,KIGWENE,ECOLE PRIMAIRE GASHIKI,Primary,Ministry of education,2015
-2.567138888,29.751055556,801,SOUTH,HUYE,MBAZI,GATOBOTOBO,AKANYINYA, ,Primary,Ministry of education,2015
-2.542888888,29.655833333,802,SOUTH,HUYE,MARABA,SHYEMBE,KIZI,ECOLE PPRIMAIRE SHYEMB E,Primary,Ministry of education,2015
-2.534722222,29.643444444,803,SOUTH,HUYE,MARABA,SHANGA,GASORORO,ECOLE PPRIMAIRE MARABA,Primary,Ministry of education,2015
-2.531694444,29.602611111,804,SOUTH,HUYE,MARABA,BUREMERA,NKORWE,ECOLE  PPRIMAIRE NKORWE,Primary,Ministry of education,2015
-2.548027778,29.612833333,805,SOUTH,HUYE,MARABA,BUREMERA,BUREMERA,ECOLE  PPRIMAIRE BUREMERA,Primary,Ministry of education,2015
-2.679833333,29.73925,806,SOUTH,HUYE,MUKURA,BUVUMO, ,EP BUVUMU,Primary,Ministry of education,2015
-2.641583333,29.747194444,807,SOUTH,HUYE,MUKURA,RANGO A,MPANZA,EP RANGO,Primary,Ministry of education,2015
-2.674083333,29.757777778,808,SOUTH,HUYE,MUKURA,ICYERU, ,EP SAHERA,Primary,Ministry of education,2015
-2.442944445,29.80825,809,SOUTH,HUYE,KINAZI,BYINZA,BUREMERA,BUREMERA PRIMARY SCHOOL,Primary,Ministry of education,2015
-2.397194445,29.801444444,810,SOUTH,HUYE,KINAZI,GITOVU,KARAMBO,GITOVU PRIMARY SCHOOL,Primary,Ministry of education,2015
-2.428944444,29.778277778,811,SOUTH,HUYE,KINAZI,KABONA,REMERA,REMERA PRIMARY SCHOOL,Primary,Ministry of education,2015
-2.412555555,29.752166667,812,SOUTH,HUYE,KINAZI,SAZANGE,GAHONDO,NYAGISENYI PRIMARY SCHOOL,Primary,Ministry of education,2015
-2.625416667,29.740583333,813,SOUTH,HUYE,TUMBA,GITWA,KIMBA,EP IKIBONDO,Primary,Ministry of education,2015
-2.624694444,29.741166667,814,SOUTH,HUYE,TUMBA,GITWA,RIMBA,ECOLE PRIMAIRE TUMBA,Primary,Ministry of education,2015
-2.454111111,29.676694444,815,SOUTH,HUYE,KIGOMA,RUGARAMA,RYARUHIMBYA,ECOLE SECONDAIRE BITARE,Primary,Ministry of education,2015
-2.433277778,29.652638889,816,SOUTH,HUYE,KIGOMA,NYABISINDU,MUBUGA,ECOLE SECONDAIRE MUBUGA,Primary,Ministry of education,2015
-2.487916667,29.648444444,817,SOUTH,HUYE,KIGOMA,GISHIHE,KARAMBI,ECOLE SECONDAIRE BIRAMBO,Primary,Ministry of education,2015
-2.477611111,29.631333333,818,SOUTH,HUYE,KIGOMA,KABUGA,NYARUNAZI,ECOLE PRIMAIRE MUSEBEYA,Primary,Ministry of education,2015
-2.486527778,29.604638889,819,SOUTH,HUYE,KIGOMA,SHANGA,KABICUKI,ECOLE PRIMAIRE SHANGA,Primary,Ministry of education,2015
-2.579305555,29.706666667,820,SOUTH,HUYE,HUYE,NYAKAGEZI,RUGARAMA,ECOLE PRIMAIRE NKIMA,Primary,Ministry of education,2015
-2.575111111,29.731111111,821,SOUTH,HUYE,HUYE,RUKIRA,NYANZA,ECOLE PRIMAIRE NYANZA,Primary,Ministry of education,2015
-2.596361111,29.689472222,822,SOUTH,HUYE,HUYE,MUYOGORO,NYARUTOVU,ECOLE PRIMAIRE RUKARA,Primary,Ministry of education,2015
-2.433361111,29.733138889,823,SOUTH,HUYE,RWANIRO,SHYUNGA,KARUGUMYA,EP GASHOBA,Primary,Ministry of education,2015
-2.41475,29.736805555,824,SOUTH,HUYE,RWANIRO,MWENDO,MURANGO,EP MWENDO,Primary,Ministry of education,2015
-2.4445,29.706138889,825,SOUTH,HUYE,RWANIRO,GATWARO,NYAKABUYE,EP RWANIRO,Primary,Ministry of education,2015
-2.419555556,29.686333334,826,SOUTH,HUYE,RWANIRO,NYARUHOMBO,KIBARA,EP RUGARAMA,Primary,Ministry of education,2015
-2.482,29.718944444,827,SOUTH,HUYE,RUHASHYA,BUSHESHI,KAMUHOZA,EP BUSHESHI,Primary,Ministry of education,2015
-2.510083334,29.757055556,828,SOUTH,HUYE,RUHASHYA,GATOVU,DUTARE,EP GATOVU,Primary,Ministry of education,2015
-2.514361111,29.769416667,829,SOUTH,HUYE,RUHASHYA,MUHORORO,NYAKABINGO,EP MUHORORO,Primary,Ministry of education,2015
-2.482611111,29.733972222,830,SOUTH,HUYE,RUHASHYA,RUHASHYA,MUGINGA,EP RUHASHYA,Primary,Ministry of education,2015
-2.588611111,29.751333333,831,SOUTH,HUYE,NGOMA,BUTARE,AKABUYE,PETIT SEMINAIRE BAPTISTE,Secondary,Ministry of education,2015
-2.591666667,29.750222222,832,SOUTH,HUYE,NGOMA,BUTARE,AKABUYE,GROUPE SCOLAIRE DES PARENTS,Secondary,Ministry of education,2015
-2.592972222,29.74175,833,SOUTH,HUYE,NGOMA,BUTARE,KARUBANDA,ECOLE NOTRE DAME DE LA PROVIDENCE,Secondary,Ministry of education,2015
-2.608083333,29.737888889,834,SOUTH,HUYE,NGOMA,BUTARE,BUSENYI,ECOLE SECONDAIRE BUTARE,Secondary,Ministry of education,2015
-2.607277778,29.744055555,835,SOUTH,HUYE,NGOMA,BUTARE,KABUTARE,GROUPE SCOLAIRE OFFICIEL BUTARE,Secondary,Ministry of education,2015
